name,orig_name,state,orig_county,established,discontinued,continuous,stamp_index,id,coordinates,duration,gnis_match,gnis_name,gnis_county,gnis_state,gnis_feature_id,gnis_feature_class,gnis_orig_name,gnis_orig_county,gnis_latitude,gnis_longitude,gnis_elev_in_m,gnis_dist,latitude,longitude,state_full,state_latitude,state_longitude
HOME CITY,HOME CITY,OH,Hamilton,1851.0,1909.0,False,2.0,89514,True,58.0,True,HOME CITY,HAMILTON,OH,1989723.0,Post Office,Home City Post Office,Hamilton,39.11256,-84.68884,160.0,1.0,39.11256,-84.68884,Ohio,40.152075305199205,-82.69208475815202
SOMERVILLE,SOMERVILLE,ME,Lincoln,1858.0,1908.0,True,3.0,53613,True,50.0,True,SOMERVILLE,LINCOLN,ME,575719.0,Populated Place,Somerville,Lincoln,44.3092388,-69.4889319,64.0,1.0,44.3092388,-69.4889319,Maine,44.62629694764543,-69.39335615798707
LLOYD,LLOYD,PA,Tioga,1868.0,1935.0,True,2.0,33298,True,67.0,True,LLOYD,TIOGA,PA,1214385.0,Post Office,Lloyd Post Office (historical),Tioga,41.5559037,-77.3802564,261.0,1.0,41.5559037,-77.3802564,Pennsylvania,40.72547983697331,-77.55723820194132
LAKE,LAKE,NC,Davidson,1903.0,1914.0,True,4.0,93420,True,11.0,True,LAKE,DAVIDSON,NC,1023724.0,Locale,Lake (historical),Davidson,35.84625,-80.17421,205.0,1.0,35.84625,-80.17421,North Carolina,35.65762478682171,-79.85172837217462
RECTOR,RECTOR,MO,Shannon,1894.0,1954.0,True,1.0,47791,True,60.0,True,RECTOR,SHANNON,MO,741189.0,Populated Place,Rector,Shannon,37.4069897,-91.5095872,288.0,1.0,37.4069897,-91.5095872,Missouri,38.29739780113773,-92.40621321592816
LACTIN,LACTIN,IA,Cedar,1851.0,1857.0,True,7.0,93348,True,6.0,True,LACTIN,CEDAR,IA,2001548.0,Post Office,Lactin Post Office (historical),Cedar,41.6253,-91.03349,232.0,1.0,41.6253,-91.03349,Iowa,41.92312560548421,-93.1251007552586
SHOUPS FORD,SHOUPS FORD,NC,Burke,1876.0,1911.0,True,4.0,113347,True,35.0,True,SHOUPS FORD,BURKE,NC,1022619.0,Populated Place,Shoups Ford,Burke,35.5918,-81.55981,337.0,1.0,35.5918,-81.55981,North Carolina,35.65762478682171,-79.85172837217462
NAFF,NAFF,LA,Morehouse,1895.0,1914.0,True,4.0,39521,True,19.0,True,NAFF,MOREHOUSE,LA,546917.0,Populated Place,Naff,Morehouse,32.9351287,-91.9184623,35.0,1.0,32.9351287,-91.9184623,Louisiana,31.25885839387474,-91.9906807220234
CACTUS,CACTUS,KS,Norton,1874.0,1903.0,True,5.0,129305,True,29.0,True,CACTUS,NORTON,KS,482418.0,Locale,Cactus (historical),Norton,39.75612,-99.66872,672.0,1.0,39.75612,-99.66872,Kansas,38.52652031092821,-97.41166347965247
VANSVILLE,VANSVILLE,MD,Prince Georges,1804.0,1835.0,True,7.0,119221,True,31.0,True,VANSVILLE,PRINCE GEORGE'S,MD,1714245.0,Post Office,Vansville Post Office,Prince George's,39.0336,-76.91275,46.0,1.0,39.0336,-76.91275,Maryland,39.122077160656936,-76.77834919226278
THURBER,THURBER,TX,Erath,1889.0,1936.0,True,2.0,161696,True,47.0,True,THURBER,ERATH,TX,1379160.0,Populated Place,Thurber,Erath,32.50735,-98.41727,314.0,1.0,32.50735,-98.41727,Texas,31.49183703480589,-97.29755489625168
SHELBY,SHELBY,TX,Austin,1839.0,1912.0,True,4.0,158542,True,73.0,True,SHELBY,AUSTIN,TX,1347010.0,Populated Place,Shelby,Austin,30.02161,-96.59831,138.0,1.0,30.02161,-96.59831,Texas,31.49183703480589,-97.29755489625168
SAINT JOE,SAINT JOE,PA,Butler,1877.0,1902.0,True,4.0,50517,True,25.0,True,SAINT JOE,BUTLER,PA,1204574.0,Populated Place,Saint Joe,Butler,40.9045083,-79.7736621,432.0,1.0,40.9045083,-79.7736621,Pennsylvania,40.72547983697331,-77.55723820194132
LINN FLAT,LINN FLAT,TX,Nacogdoches,1850.0,1918.0,True,4.0,146121,True,68.0,True,LINN FLAT,NACOGDOCHES,TX,1380089.0,Populated Place,Linn Flat,Nacogdoches,31.7899,-94.73188,134.0,1.0,31.7899,-94.73188,Texas,31.49183703480589,-97.29755489625168
HALLET,HALLET,KS,Hodgeman,1905.0,1920.0,True,3.0,140203,True,15.0,True,HALLET,HODGEMAN,KS,471563.0,Civil,Township of Hallet,Hodgeman,38.08767,-100.0631,755.0,,38.08767,-100.0631,Kansas,38.52652031092821,-97.41166347965247
ARKALON,ARKALON,KS,Seward,1888.0,1929.0,True,3.0,125279,True,41.0,True,ARKALON,SEWARD,KS,484534.0,Populated Place,Arkalon,Seward,37.14308,-100.8074,798.0,1.0,37.14308,-100.8074,Kansas,38.52652031092821,-97.41166347965247
STRAUBVILLE,STRAUBVILLE,ND,Sargent,1887.0,1984.0,True,1.0,160421,True,97.0,True,STRAUBVILLE,SARGENT,ND,1032364.0,Populated Place,Straubville,Sargent,46.04386,-97.9001,401.0,1.0,46.04386,-97.9001,North Dakota,47.49648331707317,-99.80502257317072
PINE FOREST,PINE FOREST,TX,Hopkins,1889.0,1905.0,True,5.0,153728,True,16.0,True,PINE FOREST,HOPKINS,TX,1378864.0,Populated Place,Pine Forest,Hopkins,33.11262,-95.38467,159.0,1.0,33.11262,-95.38467,Texas,31.49183703480589,-97.29755489625168
RONDOUT,RONDOUT,IL,Lake,1888.0,1931.0,False,2.0,110493,True,43.0,True,RONDOUT,LAKE,IL,416905.0,Populated Place,Rondout,Lake,42.28002,-87.89535,207.0,1.0,42.28002,-87.89535,Illinois,40.10173193774704,-89.09195342628459
HELENA STATION,HELENA STATION,KY,Mason,1878.0,1937.0,True,2.0,88360,True,59.0,True,HELENA,MASON,KY,494005.0,Populated Place,Helena,Mason,38.49341,-83.7752,252.0,1.0,38.49341,-83.7752,Kentucky,37.61319005289673,-84.68927476511334
WALTERTOWN,WALTERTOWN,GA,Ware,1890.0,1907.0,True,5.0,60221,True,17.0,True,WALTERTOWN,WARE,GA,333360.0,Populated Place,Waltertown,Ware,31.2996584,-82.402354,42.0,1.0,31.2996584,-82.402354,Georgia,33.12832351739887,-83.74456450104394
WINNER,WINNER,TN,Carter,1899.0,1906.0,True,5.0,63144,True,7.0,True,WINNER,CARTER,TN,1327407.0,Populated Place,Winner,Carter,36.3970566,-82.1090158,530.0,1.0,36.3970566,-82.1090158,Tennessee,35.90304088108576,-85.8669100795989
EAGLE,EAGLE,ID,Shoshone,1884.0,1888.0,True,7.0,134975,True,4.0,True,EAGLE,SHOSHONE,ID,396428.0,Populated Place,Eagle,Shoshone,47.64354,-115.9179,776.0,1.0,47.64354,-115.9179,Idaho,44.65880326625387,-114.70573529411764
VEACH,VEACH,TX,San Augustine,1916.0,1936.0,True,2.0,163148,True,20.0,True,VEACH,SAN AUGUSTINE,TX,1383708.0,Populated Place,Veach,San Augustine,31.22158,-94.17964,68.0,1.0,31.22158,-94.17964,Texas,31.49183703480589,-97.29755489625168
BOILSTON,BOILSTON,NC,Henderson,1844.0,1904.0,False,5.0,69758,True,60.0,True,BOILSTON,HENDERSON,NC,1023420.0,Populated Place,Boilston,Henderson,35.350114,-82.623457,680.0,1.0,35.350114,-82.623457,North Carolina,35.65762478682171,-79.85172837217462
RED ROCK,RED ROCK,AZ,Yavapai,1879.0,1881.0,True,9.0,155505,True,2.0,True,RED ROCK,YAVAPAI,AZ,33497.0,Populated Place,Red Rock,Yavapai,34.82557,-111.8165,1212.0,1.0,34.82557,-111.8165,Arizona,33.54288046460177,-111.52553561946904
HUGHES,HUGHES,TN,Macon,1890.0,1905.0,True,5.0,27858,True,15.0,True,HUGHES,MACON,TN,2084547.0,Cemetery,Hughes Cemetery,Macon,36.546382,-86.121384,281.0,1.0,36.546382,-86.121384,Tennessee,35.90304088108576,-85.8669100795989
SANGER,SANGER,ND,Oliver,1881.0,1964.0,True,1.0,157710,True,83.0,True,SANGER,OLIVER,ND,1031352.0,Populated Place,Sanger,Oliver,47.17971,-100.9954,520.0,1.0,47.17971,-100.9954,North Dakota,47.49648331707317,-99.80502257317072
JOPPA,JOPPA,WV,Braxton,1905.0,1919.0,True,4.0,91829,True,14.0,True,JOPPA,BRAXTON,WV,1549764.0,Populated Place,Joppa,Braxton,38.77871,-80.48814,320.0,1.0,38.77871,-80.48814,West Virginia,38.621691901095794,-80.8000481173913
BORDEAUX,BORDEAUX,TN,Davidson,1892.0,1902.0,True,5.0,6054,True,10.0,True,BORDEAUX,DAVIDSON,TN,1277996.0,Populated Place,Bordeaux,Davidson,36.1939448,-86.8313884,151.0,1.0,36.1939448,-86.8313884,Tennessee,35.90304088108576,-85.8669100795989
GREAT BELT,GREAT BELT,PA,Butler,1874.0,1935.0,True,2.0,23651,True,61.0,True,GREAT BELT,BUTLER,PA,1176038.0,Populated Place,Great Belt,Butler,40.8086756,-79.803108,384.0,1.0,40.8086756,-79.803108,Pennsylvania,40.72547983697331,-77.55723820194132
RHODES POINT,RHODES POINT,MD,Somerset,1907.0,1992.0,True,1.0,109294,True,85.0,True,RHODES POINT,SOMERSET,MD,591121.0,Populated Place,Rhodes Point,Somerset,37.97429,-76.04105,0.0,1.0,37.97429,-76.04105,Maryland,39.122077160656936,-76.77834919226278
HUTCHINSON,HUTCHINSON,VA,Wise,1890.0,1894.0,True,6.0,90378,True,4.0,True,HUTCHINSON,WISE,VA,1484301.0,Cemetery,Hutchinson Cemetery,Wise,37.04315,-82.50709,697.0,1.0,37.04315,-82.50709,Virginia,37.59297044544598,-78.73498313891332
RENVILLE,RENVILLE,ND,Bottineau,1902.0,1906.0,True,5.0,155719,True,4.0,True,RENVILLE,BOTTINEAU,ND,1030882.0,Populated Place,Renville,Bottineau,48.76308,-101.3002,472.0,1.0,48.76308,-101.3002,North Dakota,47.49648331707317,-99.80502257317072
AINSLIE,AINSLIE,GA,Bleckley,1905.0,1908.0,True,6.0,421,True,3.0,True,AINSLIE,BLECKLEY,GA,334609.0,Populated Place,Ainslie (historical),Bleckley,32.4484849,-83.4715665,72.0,1.0,32.4484849,-83.4715665,Georgia,33.12832351739887,-83.74456450104394
BLUE DIAMOND,BLUE DIAMOND,KY,Perry,1916.0,1984.0,True,1.0,69547,True,68.0,True,BLUE DIAMOND,PERRY,KY,2557285.0,Post Office,Blue Diamond Post Office (historical),Perry,37.3075226,-83.2134418,308.0,1.0,37.3075226,-83.2134418,Kentucky,37.61319005289673,-84.68927476511334
HICO,HICO (2),AR,Benton,1885.0,1894.0,True,6.0,26435,True,9.0,True,HICO,BENTON,AR,75550.0,Populated Place,Hico,Benton,36.1903586,-94.5410517,349.0,1.0,36.1903586,-94.5410517,Arkansas,35.01494461423343,-92.50292319068728
FREMONT,FREMONT,OR,Lake,1908.0,1919.0,True,4.0,137907,True,11.0,True,FREMONT,LAKE,OR,1165280.0,Post Office,Fremont Post Office (historical),Lake,43.37847,-121.1533,1352.0,1.0,43.37847,-121.1533,Oregon,44.44548039933444,-121.82370232945092
COWART,COWART,VA,Northumberland,1891.0,1958.0,True,1.0,76379,True,67.0,True,COWART,NORTHUMBERLAND,VA,1495433.0,Populated Place,Cowart,Northumberland,37.99541,-76.4719,3.0,1.0,37.99541,-76.4719,Virginia,37.59297044544598,-78.73498313891332
ROCK VALLEY,ROCK VALLEY,NY,Delaware,1884.0,1912.0,False,3.0,49211,True,28.0,True,ROCK VALLEY,DELAWARE,NY,962738.0,Populated Place,Rock Valley,Delaware,41.8895323,-75.0843341,385.0,1.0,41.8895323,-75.0843341,New York,42.62246135933227,-75.57093866626391
NORA,NORA,KS,Pratt,1879.0,1908.0,True,5.0,151106,True,29.0,True,NORA,PRATT,KS,482462.0,Locale,Nora (historical),Pratt,37.80557,-98.95871,620.0,1.0,37.80557,-98.95871,Kansas,38.52652031092821,-97.41166347965247
LANTZ,LANTZ,MD,Frederick,1880.0,1964.0,True,1.0,93819,True,84.0,True,LANTZ,FREDERICK,MD,1711222.0,Post Office,Lantz Post Office,Frederick,39.67482,-77.45527,290.0,1.0,39.67482,-77.45527,Maryland,39.122077160656936,-76.77834919226278
HIGH POINT,HIGH POINT,NJ,Ocean,1910.0,1931.0,True,1.0,26504,True,21.0,True,HIGH POINT,OCEAN,NJ,876984.0,Populated Place,High Point,Ocean,39.706231,-74.1340253,2.0,1.0,39.706231,-74.1340253,New Jersey,40.32415021333333,-74.61807680235295
NUTLEY,NUTLEY,NJ,Essex,1887.0,1907.0,True,1.0,41830,True,20.0,True,NUTLEY,ESSEX,NJ,2056512.0,Post Office,Nutley Post Office,Essex,40.8198507,-74.1587595,25.0,1.0,40.8198507,-74.1587595,New Jersey,40.32415021333333,-74.61807680235295
DICKS,DICKS,CO,Las Animas,1926.0,1935.0,True,3.0,134149,True,9.0,True,DICKS,LAS ANIMAS,CO,194654.0,Mine,Dicks Mine,Las Animas,37.20307,-104.6947,2121.0,,37.20307,-104.6947,Colorado,38.89860521444695,-105.65747381489842
CLARK'S CROSS ROADS,CLARK'S CROSS ROADS,IN,Warren,1855.0,1858.0,True,9.0,74511,True,3.0,True,CLARKS CROSS ROADS,WARREN,IN,432124.0,Populated Place,Clarks Cross Roads,Warren,40.36004,-87.34779,210.0,1.0,40.36004,-87.34779,Indiana,39.762828507259336,-86.22832405360336
KINCAID,KINCAID,GA,Chattooga,1890.0,1906.0,False,4.0,30473,True,16.0,True,KINCAID,CHATTOOGA,GA,328195.0,Populated Place,Kincaid,Chattooga,34.3520347,-85.3724567,213.0,1.0,34.3520347,-85.3724567,Georgia,33.12832351739887,-83.74456450104394
TITICUS,TITICUS,CT,Fairfield,1885.0,1899.0,True,6.0,57586,True,14.0,True,TITICUS,FAIRFIELD,CT,212574.0,Populated Place,Titicus,Fairfield,41.2923175,-73.5034572,187.0,1.0,41.2923175,-73.5034572,Connecticut,41.58540354147982,-72.72781253565023
VERMILLION LAKE,VERMILLION LAKE,MN,Saint Louis,1867.0,1871.0,True,7.0,119382,True,4.0,True,VERMILION LAKE,ST. LOUIS,MN,662717.0,Cemetery,Town of Vermilion Lake Cemetery,St. Louis,47.73167,-92.37198,444.0,0.9333333,47.73167,-92.37198,Minnesota,45.838668873886334,-94.26161293179725
SAINT JAMES,SAINT JAMES (2),MD,Baltimore,1870.0,1889.0,True,5.0,111454,True,19.0,True,SAINT JAMES,BALTIMORE,MD,1709348.0,School,Saint James School,Baltimore (city),39.30224,-76.60137,29.0,1.0,39.30224,-76.60137,Maryland,39.122077160656936,-76.77834919226278
THE RIDGE,THE RIDGE,KY,Elliott,1878.0,1955.0,True,1.0,117211,True,77.0,True,THE RIDGE,ELLIOTT,KY,2120893.0,Post Office,The Ridge Post Office (historical),Elliott,38.09333,-83.19889,275.0,1.0,38.09333,-83.19889,Kentucky,37.61319005289673,-84.68927476511334
WEST NEWTON,WEST NEWTON,MN,Wabasha,1856.0,1859.0,True,8.0,121342,True,3.0,True,WEST NEWTON,WABASHA,MN,2064576.0,Post Office,West Newton Post Office (historical),Wabasha,44.265,-91.90056,201.0,1.0,44.265,-91.90056,Minnesota,45.838668873886334,-94.26161293179725
GOOD HOPE,GOOD HOPE,AL,Elmore,1873.0,1903.0,True,4.0,23007,True,30.0,True,GOOD HOPE,ELMORE,AL,119107.0,Populated Place,Good Hope,Elmore,32.5734666,-86.0132956,122.0,1.0,32.5734666,-86.0132956,Alabama,33.03209749119171,-86.72512276024179
WAHL,WAHL,WA,Whatcom,1891.0,1907.0,True,5.0,163688,True,16.0,True,WAHL,WHATCOM,WA,1511402.0,Populated Place,Wahl,Whatcom,48.83622,-122.3643,76.0,1.0,48.83622,-122.3643,Washington,47.38130745950554,-121.08638959931798
AVON,AVON (2),WI,Rock,1882.0,1901.0,True,4.0,66609,True,19.0,True,AVON,ROCK,WI,1561037.0,Populated Place,Avon,Rock,42.5433444,-89.3315042,232.0,1.0,42.5433444,-89.3315042,Wisconsin,44.176831579177936,-89.75962788128719
BRAIDEN TOWN,BRAIDEN TOWN,FL,Manatee,1878.0,1905.0,True,2.0,6491,True,27.0,True,BRAIDEN TOWN,MANATEE,FL,279311.0,Populated Place,Braiden Town,Manatee,27.4989278,-82.5748194,1.0,1.0,27.4989278,-82.5748194,Florida,29.149179605277045,-82.70831202058048
ELBA,ELBA,AR,Van Buren,1908.0,1954.0,True,1.0,17820,True,46.0,True,ELBA,VAN BUREN,AR,57708.0,Populated Place,Elba,Van Buren,35.7689662,-92.4459925,260.0,1.0,35.7689662,-92.4459925,Arkansas,35.01494461423343,-92.50292319068728
HASTINGS,HASTINGS,IN,Kosciusko,1891.0,1903.0,True,5.0,87882,True,12.0,True,HASTINGS,KOSCIUSKO,IN,435865.0,Populated Place,Hastings,Kosciusko,41.38366,-85.92944,255.0,1.0,41.38366,-85.92944,Indiana,39.762828507259336,-86.22832405360336
KAKO LANDING,KAKO LANDING,AK,,1946.0,1951.0,True,4.0,143615,True,5.0,True,KAKO LANDING,KUSILVAK,AK,1926448.0,Post Office,Kako Landing Post Office (historical),Kusilvak (CA),61.85389,-161.3464,11.0,1.0,61.85389,-161.3464,Alaska,60.97705223333333,-148.14889333333332
DROWNING CREEK,DROWNING CREEK,NC,Burke,1829.0,1878.0,False,7.0,79194,True,49.0,True,DROWNING CREEK,BURKE,NC,1001460.0,Populated Place,Drowning Creek (historical),Burke,35.73013,-81.47842,338.0,1.0,35.73013,-81.47842,North Carolina,35.65762478682171,-79.85172837217462
RIPLEY,RIPLEY,MT,Lincoln,1908.0,1909.0,True,7.0,156093,True,1.0,True,RIPLEY,LINCOLN,MT,1782321.0,Post Office,Ripley Post Office (historical),Lincoln,48.3744,-115.4402,641.0,1.0,48.3744,-115.4402,Montana,47.00211326959847,-109.90853677501592
GAILLARD,GAILLARD,GA,Crawford,1903.0,1951.0,True,1.0,21645,True,48.0,True,GAILLARD,CRAWFORD,GA,326297.0,Populated Place,Gaillard,Crawford,32.643477,-84.0051874,123.0,1.0,32.643477,-84.0051874,Georgia,33.12832351739887,-83.74456450104394
SANDRIDGE,SANDRIDGE,MN,Marshall,1901.0,1908.0,True,5.0,111861,True,7.0,True,SANDRIDGE,MARSHALL,MN,2107982.0,Post Office,Sandridge Post Office,Marshall,48.29194,-96.19222,353.0,1.0,48.29194,-96.19222,Minnesota,45.838668873886334,-94.26161293179725
DELANCO,DELANCO,NJ,Burlington,1857.0,1954.0,True,1.0,14792,True,97.0,True,DELANCO,BURLINGTON,NJ,2802396.0,Post Office,Delanco Post Office,Burlington,40.0502696,-74.952902,4.0,1.0,40.0502696,-74.952902,New Jersey,40.32415021333333,-74.61807680235295
WILMA,WILMA,FL,Liberty,1918.0,1955.0,False,1.0,62911,True,37.0,True,WILMA,LIBERTY,FL,306601.0,Populated Place,Wilma,Liberty,30.1543663,-84.9643583,19.0,1.0,30.1543663,-84.9643583,Florida,29.149179605277045,-82.70831202058048
SPRINGWATER,SPRINGWATER,OR,Clackamas,1874.0,1914.0,True,2.0,159842,True,40.0,True,SPRINGWATER,CLACKAMAS,OR,1165979.0,Post Office,Springwater Post Office (historical),Clackamas,45.25068,-122.3395,346.0,1.0,45.25068,-122.3395,Oregon,44.44548039933444,-121.82370232945092
ANJEAN,ANJEAN,WV,Greenbrier,1927.0,1961.0,True,1.0,65585,True,34.0,True,ANJEAN,GREENBRIER,WV,1553730.0,Populated Place,Anjean,Greenbrier,38.0201174,-80.6331417,816.0,1.0,38.0201174,-80.6331417,West Virginia,38.621691901095794,-80.8000481173913
REED,REED,MI,Oceana,1868.0,1871.0,True,6.0,108921,True,3.0,True,REED,OCEANA,MI,2515399.0,Post Office,Reed Post Office,Oceana,43.58417,-86.22472,218.0,1.0,43.58417,-86.22472,Michigan,43.64460033559263,-84.97948272513034
BORDEAUX,BORDEAUX,WA,Thurston,1903.0,1942.0,True,2.0,127981,True,39.0,True,BORDEAUX,THURSTON,WA,1511610.0,Populated Place,Bordeaux (historical),Thurston,46.89482,-123.0801,78.0,1.0,46.89482,-123.0801,Washington,47.38130745950554,-121.08638959931798
SEWARD,SEWARD,NC,Forsyth,1892.0,1903.0,True,6.0,112716,True,11.0,True,SEWARD,FORSYTH,NC,994519.0,Populated Place,Seward,Forsyth,36.18653,-80.36922,290.0,1.0,36.18653,-80.36922,North Carolina,35.65762478682171,-79.85172837217462
RANKIN,RANKIN,TX,Ellis,1900.0,1905.0,True,5.0,155274,True,5.0,True,RANKIN,ELLIS,TX,1378932.0,Populated Place,Rankin,Ellis,32.2057,-96.70666,144.0,1.0,32.2057,-96.70666,Texas,31.49183703480589,-97.29755489625168
BEAVERDAM,BEAVERDAM,MO,Ripley,1895.0,1897.0,True,6.0,3726,True,2.0,True,BEAVERDAM,RIPLEY,MO,735232.0,Populated Place,Beaverdam,Ripley,36.7531108,-90.630951,128.0,1.0,36.7531108,-90.630951,Missouri,38.29739780113773,-92.40621321592816
WALDENBURG,WALDENBURG(H),MI,Macomb,1860.0,1906.0,True,3.0,119992,True,46.0,True,WALDENBURG,MACOMB,MI,2648160.0,Post Office,Waldenburg Post Office (historical),Macomb,42.65722,-82.9375,184.0,1.0,42.65722,-82.9375,Michigan,43.64460033559263,-84.97948272513034
GALUM,GALUM,IL,Perry,1823.0,1875.0,False,5.0,84284,True,52.0,True,GALUM,PERRY,IL,2042767.0,Cemetery,Galum Cemetery,Perry,38.0856,-89.50673,140.0,1.0,38.0856,-89.50673,Illinois,40.10173193774704,-89.09195342628459
FOUNTAIN,FOUNTAIN,AL,Monroe,1922.0,1980.0,True,1.0,20948,True,58.0,True,FOUNTAIN,MONROE,AL,118541.0,Populated Place,Fountain,Monroe,31.5946038,-87.4088776,41.0,1.0,31.5946038,-87.4088776,Alabama,33.03209749119171,-86.72512276024179
BOYDS TANK,BOYDS TANK,AL,Chambers,1893.0,1911.0,True,4.0,6331,True,18.0,True,BOYDS TANK,CHAMBERS,AL,156103.0,Populated Place,Boyds Tank,Chambers,32.8173508,-85.40467,221.0,1.0,32.8173508,-85.40467,Alabama,33.03209749119171,-86.72512276024179
POINT VIVIAN,POINT VIVIAN,NY,Jefferson,1892.0,1934.0,False,1.0,46026,True,42.0,True,POINT VIVIAN,JEFFERSON,NY,960843.0,Populated Place,Point Vivian,Jefferson,44.3161601,-75.9499514,81.0,1.0,44.3161601,-75.9499514,New York,42.62246135933227,-75.57093866626391
VISAGE,VISAGE,GA,Towns,1875.0,1913.0,True,4.0,59768,True,38.0,True,VISAGE,TOWNS,GA,1705070.0,Populated Place,Visage (historical),Towns,34.9300925,-83.6671129,629.0,1.0,34.9300925,-83.6671129,Georgia,33.12832351739887,-83.74456450104394
LA UNION,LA UNION,NM,Dona Ana,1927.0,1957.0,True,1.0,144760,True,30.0,True,LA UNION,DOÑA ANA,NM,920626.0,Populated Place,La Union,Doña Ana,31.95066,-106.6617,1158.0,1.0,31.95066,-106.6617,New Mexico,34.73405899346405,-105.84728810457516
RIVERTON,RIVERTON,WA,King,1904.0,1907.0,True,6.0,156177,True,3.0,True,RIVERTON,KING,WA,1507825.0,Populated Place,Riverton,King,47.48427,-122.2946,103.0,1.0,47.48427,-122.2946,Washington,47.38130745950554,-121.08638959931798
KATHRYN,KATHRYN,WV,Fayette,1929.0,1954.0,True,1.0,92149,True,25.0,True,KATHRYN,FAYETTE,WV,1556130.0,Populated Place,Kathryn,Fayette,37.87595,-80.97426,635.0,1.0,37.87595,-80.97426,West Virginia,38.621691901095794,-80.8000481173913
MAXTOWN,MAXTOWN,OH,Delaware,1883.0,1901.0,True,4.0,97895,True,18.0,True,MAXTOWN,DELAWARE,OH,1057822.0,Populated Place,Maxtown (historical),Delaware,40.14506,-82.88268,277.0,1.0,40.14506,-82.88268,Ohio,40.152075305199205,-82.69208475815202
ARMSTRONG,ARMSTRONG,GA,Wilkes,1900.0,1905.0,True,6.0,1771,True,5.0,True,ARMSTRONG,WILKES,GA,342734.0,Populated Place,Armstrong (historical),Wilkes,33.8101251,-82.7623643,182.0,1.0,33.8101251,-82.7623643,Georgia,33.12832351739887,-83.74456450104394
WINCHESTER,WINCHESTER,MO,Clark,1840.0,1905.0,True,4.0,63018,True,65.0,True,WINCHESTER,CLARK,MO,728989.0,Populated Place,Winchester,Clark,40.3178212,-91.6112711,202.0,1.0,40.3178212,-91.6112711,Missouri,38.29739780113773,-92.40621321592816
MARKSBURY,MARKSBURY,KY,Garrard,1883.0,1915.0,True,3.0,97437,True,32.0,True,MARKSBURY,GARRARD,KY,2564750.0,Post Office,Marksbury Post Office (historical),Garrard,37.67385,-84.63787,298.0,1.0,37.67385,-84.63787,Kentucky,37.61319005289673,-84.68927476511334
NEW VERNON,NEW VERNON,PA,Mercer,1851.0,1904.0,True,4.0,40387,True,53.0,True,NEW VERNON,MERCER,PA,1199220.0,Populated Place,New Vernon,Mercer,41.4158882,-80.1217276,383.0,1.0,41.4158882,-80.1217276,Pennsylvania,40.72547983697331,-77.55723820194132
SUMPTER,SUMPTER,TX,Trinity,1851.0,1874.0,True,7.0,160679,True,23.0,True,SUMPTER,TRINITY,TX,2034922.0,Populated Place,Sumpter (historical),Trinity,31.03657,-95.05382,86.0,1.0,31.03657,-95.05382,Texas,31.49183703480589,-97.29755489625168
NEPERA PARK,NEPERA PARK,NY,Westchester,1892.0,1935.0,True,1.0,39911,True,43.0,True,NEPERA PARK,WESTCHESTER,NY,958368.0,Populated Place,Nepera Park,Westchester,40.9759314,-73.8670792,37.0,1.0,40.9759314,-73.8670792,New York,42.62246135933227,-75.57093866626391
BALLENTINE,BALLENTINE,MS,Panola,1902.0,1931.0,True,2.0,2759,True,29.0,True,BALLENTINE,PANOLA,MS,666496.0,Populated Place,Ballentine,Panola,34.3942749,-90.0964805,56.0,1.0,34.3942749,-90.0964805,Mississippi,32.904513690654625,-89.66801400419865
BURRAGEVILLE,BURRAGEVILLE,MA,Worcester,1854.0,1882.0,True,6.0,7971,True,28.0,True,BURRAGEVILLE,WORCESTER,MA,610120.0,Populated Place,Burrageville,Worcester,42.6556427,-71.9828559,317.0,1.0,42.6556427,-71.9828559,Massachusetts,42.24690810801527,-71.56362919796437
BOGOTA,BOGOTA,NJ,Bergen,1895.0,1901.0,True,4.0,5790,True,6.0,True,BOGOTA,BERGEN,NJ,2054387.0,Post Office,Bogota Post Office,Bergen,40.8783944,-74.0301041,20.0,1.0,40.8783944,-74.0301041,New Jersey,40.32415021333333,-74.61807680235295
MYRTLE GROVE,MYRTLE GROVE,FL,Escambia,1935.0,1948.0,True,1.0,39493,True,13.0,True,MYRTLE GROVE,ESCAMBIA,FL,2783453.0,Post Office,Myrtle Grove Post Office,Escambia,30.4267914,-87.2876831,23.0,1.0,30.4267914,-87.2876831,Florida,29.149179605277045,-82.70831202058048
NORWAY HILLS,NORWAY HILLS,TX,Bosque,1879.0,1890.0,True,6.0,151309,True,11.0,True,NORWAY MILLS,BOSQUE,TX,2032038.0,Locale,Norway Mills,Bosque,31.69349,-97.65697,236.0,0.9166667,31.69349,-97.65697,Texas,31.49183703480589,-97.29755489625168
GASKILL,GASKILL,CO,Grand,1880.0,1886.0,True,8.0,138404,True,6.0,True,GASKILL,GRAND,CO,2045156.0,Cemetery,Gaskill Cemetery,Grand,40.32943,-105.8661,2684.0,1.0,40.32943,-105.8661,Colorado,38.89860521444695,-105.65747381489842
ARNOLD,ARNOLD,IA,Humboldt,1900.0,1929.0,True,3.0,66008,True,29.0,True,ARNOLD,HUMBOLDT,IA,1926078.0,Post Office,Arnold Post Office (historical),Humboldt,42.810804,-94.1985726,345.0,1.0,42.810804,-94.1985726,Iowa,41.92312560548421,-93.1251007552586
ROOSEVELT,ROOSEVELT,MO,Douglas,1904.0,1937.0,False,2.0,49548,True,33.0,True,ROOSEVELT,DOUGLAS,MO,751960.0,Populated Place,Roosevelt,Douglas,36.8306135,-92.123489,286.0,1.0,36.8306135,-92.123489,Missouri,38.29739780113773,-92.40621321592816
SOUTH PARK,SOUTH PARK,KY,Jefferson,1889.0,1927.0,True,3.0,114447,True,38.0,True,SOUTH PARK,JEFFERSON,KY,503963.0,Populated Place,South Park,Jefferson,38.11257,-85.74774,141.0,1.0,38.11257,-85.74774,Kentucky,37.61319005289673,-84.68927476511334
ODD,ODD,IA,Woodbury,1879.0,1882.0,True,7.0,103617,True,3.0,True,ODD,WOODBURY,IA,1995507.0,Post Office,Odd Post Office (historical),Woodbury,42.35777,-96.12808,394.0,1.0,42.35777,-96.12808,Iowa,41.92312560548421,-93.1251007552586
HARDIN,HARDIN,TN,Hardin,1894.0,1909.0,True,4.0,25050,True,15.0,True,HARDIN,HARDIN,TN,1314913.0,Populated Place,Hardin,Hardin,35.2998006,-88.1236438,168.0,1.0,35.2998006,-88.1236438,Tennessee,35.90304088108576,-85.8669100795989
LITTLE BRITAIN,LITTLE BRITAIN,NY,Orange,1803.0,1945.0,False,1.0,33106,True,142.0,True,LITTLE BRITAIN,ORANGE,NY,1802795.0,Post Office,Little Britain Post Office (historical),Orange,41.4781494,-74.1298673,142.0,1.0,41.4781494,-74.1298673,New York,42.62246135933227,-75.57093866626391
PUCKETT,PUCKETT,AR,Benton,1886.0,1897.0,True,7.0,47021,True,11.0,True,PUCKETT,BENTON,AR,84627.0,Post Office,Puckett Post Office (historical),Benton,36.3536852,-94.0435347,342.0,1.0,36.3536852,-94.0435347,Arkansas,35.01494461423343,-92.50292319068728
MOUNT ATHOS,MOUNT ATHOS,VA,Campbell,1844.0,1906.0,False,5.0,100602,True,62.0,True,MOUNT ATHOS,CAMPBELL,VA,1477007.0,Populated Place,Mount Athos (historical),Campbell,37.38764,-79.04419,230.0,1.0,37.38764,-79.04419,Virginia,37.59297044544598,-78.73498313891332
JACK,JACK,KS,Russell,1883.0,1888.0,True,6.0,143008,True,5.0,True,JACK,RUSSELL,KS,482554.0,Locale,Jack (historical),Russell,39.08946,-98.87814,507.0,1.0,39.08946,-98.87814,Kansas,38.52652031092821,-97.41166347965247
NORTH GALVESTON,NORTH GALVESTON,IN,Kosciusko,1854.0,1868.0,False,7.0,102873,True,14.0,True,NORTH GALVESTON,KOSCIUSKO,IN,432694.0,Populated Place,North Galveston,Kosciusko,41.31977,-85.92277,261.0,1.0,41.31977,-85.92277,Indiana,39.762828507259336,-86.22832405360336
MC MILLAN,MC MILLAN,TN,Knox,1858.0,1919.0,True,2.0,36321,True,61.0,True,MCMILLAN,KNOX,TN,1315490.0,Populated Place,McMillan,Knox,36.0436954,-83.7912918,262.0,1.0,36.0436954,-83.7912918,Tennessee,35.90304088108576,-85.8669100795989
MORTON,MORTON,MO,Ray,1874.0,1904.0,True,5.0,38592,True,30.0,True,MORTON,RAY,MO,730153.0,Populated Place,Morton,Ray,39.3194575,-93.8607739,244.0,1.0,39.3194575,-93.8607739,Missouri,38.29739780113773,-92.40621321592816
DENTAYBOW,DENTAYBOW,MN,Koochiching,1908.0,1933.0,True,3.0,78239,True,25.0,True,DENTAYBOW,KOOCHICHING,MN,2106255.0,Post Office,Dentaybow Post Office (historical),Koochiching,48.18889,-93.53056,367.0,1.0,48.18889,-93.53056,Minnesota,45.838668873886334,-94.26161293179725
LAKEPORT,LAKEPORT,NY,Madison,1849.0,1903.0,True,3.0,31352,True,54.0,True,LAKEPORT,MADISON,NY,970274.0,Populated Place,Lakeport,Madison,43.1453458,-75.8718579,120.0,1.0,43.1453458,-75.8718579,New York,42.62246135933227,-75.57093866626391
WOODLAWN,WOODLAWN,KS,Nemaha,1881.0,1906.0,True,5.0,165574,True,25.0,True,WOODLAWN,NEMAHA,KS,472968.0,Populated Place,Woodlawn,Nemaha,39.78333,-95.86471,386.0,1.0,39.78333,-95.86471,Kansas,38.52652031092821,-97.41166347965247
SIXTEEN MILE STAND,SIXTEEN MILE STAND,OH,Hamilton,1855.0,1904.0,True,4.0,113718,True,49.0,True,SIXTEEN MILE STAND,HAMILTON,OH,1990207.0,Post Office,Sixteen Mile Stand Post Office (historical),Hamilton,39.27228,-84.32772,245.0,1.0,39.27228,-84.32772,Ohio,40.152075305199205,-82.69208475815202
FRIEND'S GROVE,FRIEND'S GROVE,IA,Warren,1864.0,1865.0,True,9.0,83977,True,1.0,True,FRIENDS GROVE,WARREN,IA,1969891.0,Post Office,Friends Grove Post Office (historical),Warren,41.37833,-93.47244,266.0,1.0,41.37833,-93.47244,Iowa,41.92312560548421,-93.1251007552586
RUDOLPH,RUDOLPH,TX,Kenedy,1904.0,1907.0,True,6.0,156919,True,3.0,True,RUDOLPH,KENEDY,TX,1378995.0,Populated Place,Rudolph,Kenedy,26.68562,-97.76888,9.0,1.0,26.68562,-97.76888,Texas,31.49183703480589,-97.29755489625168
NATIONAL SOLDIERS HOME,NATIONAL SOLDIERS HOME,TN,Washington,1901.0,1920.0,True,2.0,39713,True,19.0,True,NATIONAL SOLDIERS HOME,WASHINGTON,TN,1649205.0,Post Office,National Soldiers Home Post Office,Washington,36.3096521,-82.3779387,525.0,1.0,36.3096521,-82.3779387,Tennessee,35.90304088108576,-85.8669100795989
PRESTON,PRESTON,IL,Randolph,1853.0,1953.0,True,1.0,107761,True,100.0,True,PRESTON,RANDOLPH,IL,416200.0,Populated Place,Preston,Randolph,38.10616,-89.8601,143.0,1.0,38.10616,-89.8601,Illinois,40.10173193774704,-89.09195342628459
PLAINFIELD,PLAINFIELD,NY,Otsego,1809.0,1854.0,False,7.0,45582,True,45.0,True,PLAINFIELD,OTSEGO,NY,979374.0,Civil,Town of Plainfield,Otsego,42.8284079,-75.1947025,515.0,1.0,42.8284079,-75.1947025,New York,42.62246135933227,-75.57093866626391
TRAILTON,TRAILTON,ID,Bingham,1916.0,1921.0,True,5.0,162152,True,5.0,True,TRAILTON,BINGHAM,ID,2027016.0,Post Office,Trailton Post Office (historical),Bingham,43.12992,-111.9119,1679.0,1.0,43.12992,-111.9119,Idaho,44.65880326625387,-114.70573529411764
WILLOW GROVE,WILLOW GROVE,VA,Shenandoah,1849.0,1893.0,False,5.0,122392,True,44.0,True,WILLOW GROVE,SHENANDOAH,VA,1494295.0,Populated Place,Willow Grove,Shenandoah,38.84372,-78.53557,244.0,1.0,38.84372,-78.53557,Virginia,37.59297044544598,-78.73498313891332
ENOCH,ENOCH,OH,Noble,1840.0,1902.0,True,3.0,81248,True,62.0,True,ENOCH,NOBLE,OH,1064692.0,Populated Place,Enoch,Noble,39.72452,-81.41568,348.0,1.0,39.72452,-81.41568,Ohio,40.152075305199205,-82.69208475815202
TAWBORO,TAWBORO,NC,Edgecombe,1842.0,1853.0,True,5.0,116901,True,11.0,True,TAWBORO,EDGECOMBE,NC,1022886.0,Populated Place,Tawboro,Edgecombe,35.89682,-77.5358,13.0,1.0,35.89682,-77.5358,North Carolina,35.65762478682171,-79.85172837217462
JACKSONBURG,JACKSONBURG,KS,Smith,1884.0,1899.0,True,6.0,143036,True,15.0,True,JACKSONBURG,SMITH,KS,481911.0,Locale,Jacksonburg (historical),Smith,39.90835,-98.89619,560.0,1.0,39.90835,-98.89619,Kansas,38.52652031092821,-97.41166347965247
FIFE,FIFE,GA,Fulton,1909.0,1933.0,True,2.0,19968,True,24.0,True,FIFE,FULTON,GA,331708.0,Populated Place,Fife,Fulton,33.5348349,-84.545485,292.0,1.0,33.5348349,-84.545485,Georgia,33.12832351739887,-83.74456450104394
HOWARD BEACH,HOWARD BEACH,NY,Queens,1916.0,1923.0,True,2.0,27664,True,7.0,True,HOWARD BEACH,QUEENS,NY,2080420.0,Post Office,Howard Beach Post Office,Queens,40.6559823,-73.8394914,0.0,1.0,40.6559823,-73.8394914,New York,42.62246135933227,-75.57093866626391
NORTH BETHEL,NORTH BETHEL (1),ME,Oxford,1831.0,1855.0,False,6.0,41022,True,24.0,True,NORTH BETHEL,OXFORD,ME,581281.0,Populated Place,North Bethel,Oxford,44.4522859,-70.8286822,389.0,1.0,44.4522859,-70.8286822,Maine,44.62629694764543,-69.39335615798707
MARIAVILLE,MARIAVILLE,NE,Rock,1882.0,1957.0,True,1.0,147620,True,75.0,True,MARIAVILLE,ROCK,NE,1844993.0,Post Office,Mariaville Post Office (historical),Rock,42.77528,-99.33538,584.0,1.0,42.77528,-99.33538,Nebraska,41.26900677053825,-98.51318587346552
SCRANAGE,SCRANAGE,AL,Baldwin,1899.0,1937.0,False,2.0,51549,True,38.0,True,SCRANGE,BALDWIN,AL,157039.0,Populated Place,Scrange,Baldwin,31.2179512,-87.6391567,74.0,0.875,31.2179512,-87.6391567,Alabama,33.03209749119171,-86.72512276024179
EAST PASADENA,EAST PASADENA,CA,Los Angeles,1887.0,1907.0,False,2.0,135085,True,20.0,True,EAST PASADENA,LOS ANGELES,CA,2084252.0,Post Office,East Pasadena Post Office,Los Angeles,34.14593,-118.0881,209.0,1.0,34.14593,-118.0881,California,37.39580678039404,-120.4122934166266
TIGER TAIL,TIGER TAIL,TN,Dyer,1890.0,1913.0,True,4.0,57419,True,23.0,True,TIGER TAIL,DYER,TN,1314405.0,Populated Place,Tiger Tail,Dyer,35.936185,-89.5797987,79.0,1.0,35.936185,-89.5797987,Tennessee,35.90304088108576,-85.8669100795989
LEONARDVILLE,LEONARDVILLE,NJ,Monmouth,1862.0,1911.0,True,3.0,32401,True,49.0,True,LEONARDVILLE,MONMOUTH,NJ,882487.0,Populated Place,Leonardville,Monmouth,40.4062198,-74.0418062,15.0,1.0,40.4062198,-74.0418062,New Jersey,40.32415021333333,-74.61807680235295
ASPINWALL,ASPINWALL,IA,Crawford,1882.0,1965.0,True,1.0,66264,True,83.0,True,ASPINWALL,CRAWFORD,IA,1982840.0,Post Office,Aspinwall Post Office (historical),Crawford,41.911931,-95.135549,428.0,1.0,41.911931,-95.135549,Iowa,41.92312560548421,-93.1251007552586
PINEGROVE,PINEGROVE,OH,Gallia,1834.0,1923.0,True,1.0,106442,True,89.0,True,PINEGROVE,GALLIA,OH,1988265.0,Post Office,Pinegrove Post Office,Gallia,38.92786,-82.28321,212.0,1.0,38.92786,-82.28321,Ohio,40.152075305199205,-82.69208475815202
MARKET,MARKET,WV,Doddridge,1883.0,1908.0,False,4.0,97422,True,25.0,True,MARKET,DODDRIDGE,WV,1549807.0,Populated Place,Market,Doddridge,39.20509,-80.70316,258.0,1.0,39.20509,-80.70316,West Virginia,38.621691901095794,-80.8000481173913
DODD,DODD,CO,Morgan,1904.0,1907.0,True,6.0,134317,True,3.0,True,DODD,MORGAN,CO,182918.0,Populated Place,Dodd,Morgan,40.2872,-103.7075,1289.0,1.0,40.2872,-103.7075,Colorado,38.89860521444695,-105.65747381489842
GOLDEN,GOLDEN,WA,Okanogan,1889.0,1893.0,True,7.0,139104,True,4.0,True,GOLDEN,OKANOGAN,WA,1529022.0,Locale,Golden,Okanogan,48.89488,-119.5234,575.0,1.0,48.89488,-119.5234,Washington,47.38130745950554,-121.08638959931798
HURRICANE CREEK,HURRICANE CREEK,MS,Clarke,1842.0,1871.0,False,6.0,28114,True,29.0,True,HURRICANE CREEK,CLARKE,MS,691953.0,Populated Place,Hurricane Creek,Clarke,32.2109779,-88.4544784,133.0,1.0,32.2109779,-88.4544784,Mississippi,32.904513690654625,-89.66801400419865
SUMMERTON,SUMMERTON,VA,Nansemond,1822.0,1831.0,True,8.0,116142,True,9.0,True,SUMMERTON,SUFFOLK,VA,1495129.0,Populated Place,Summerton,Suffolk (city),36.56821,-76.75135,17.0,1.0,36.56821,-76.75135,Virginia,37.59297044544598,-78.73498313891332
MCKENZIES,MCKENZIES,WV,Mercer,1892.0,1899.0,True,6.0,98306,True,7.0,True,MCKENZIES,MERCER,WV,1678354.0,Populated Place,McKenzies,Mercer,37.31679,-81.02231,563.0,1.0,37.31679,-81.02231,West Virginia,38.621691901095794,-80.8000481173913
PLEASANTRIDGE,PLEASANTRIDGE,SD,Perkins,1911.0,1929.0,True,3.0,154103,True,18.0,True,PLEASANT RIDGE,PERKINS,SD,1266467.0,Cemetery,Pleasant Ridge Cemetery,Perkins,45.69736,-102.3743,779.0,0.9230769,45.69736,-102.3743,South Dakota,44.30115526366251,-99.35172597315436
BUCKLAND,BUCKLAND,VA,Prince William,1800.0,1907.0,True,3.0,71404,True,107.0,True,BUCKLAND,PRINCE WILLIAM,VA,1499177.0,Populated Place,Buckland,Prince William,38.7803936,-77.6738809,95.0,1.0,38.7803936,-77.6738809,Virginia,37.59297044544598,-78.73498313891332
RICHMOND,RICHMOND,MN,Winona,1856.0,1905.0,False,5.0,109446,True,49.0,True,RICHMOND,WINONA,MN,665416.0,Civil,Township of Richmond,Winona,43.96336,-91.4396,352.0,,43.96336,-91.4396,Minnesota,45.838668873886334,-94.26161293179725
REGES,REGES,KY,Estill,1921.0,1938.0,True,2.0,109013,True,17.0,True,REGES,ESTILL,KY,2440503.0,Post Office,Reges Post Office (historical),Estill,37.6791,-84.07049,251.0,1.0,37.6791,-84.07049,Kentucky,37.61319005289673,-84.68927476511334
EMERY,EMERY,MI,Washtenaw,1884.0,1903.0,True,3.0,81096,True,19.0,True,EMERY,WASHTENAW,MI,2646736.0,Post Office,Emery Post Office (historical),Washtenaw,42.36,-83.68306,300.0,1.0,42.36,-83.68306,Michigan,43.64460033559263,-84.97948272513034
CHARITY,CHARITY,VA,Patrick,1885.0,1906.0,True,5.0,73798,True,21.0,True,CHARITY,PATRICK,VA,1492746.0,Populated Place,Charity,Patrick,36.81986,-80.21838,422.0,1.0,36.81986,-80.21838,Virginia,37.59297044544598,-78.73498313891332
MONT CLARE,MONT CLARE,SC,Darlington,1893.0,1954.0,False,1.0,38113,True,61.0,True,MONT CLARE,DARLINGTON,SC,1246713.0,Populated Place,Mont Clare,Darlington,34.3968222,-79.821174,53.0,1.0,34.3968222,-79.821174,South Carolina,34.12136880118953,-81.13033261165741
PROSPECT CITY,PROSPECT CITY,IL,Ford,1857.0,1859.0,True,7.0,107948,True,2.0,True,PROSPECT CITY,FORD,IL,415468.0,Populated Place,Prospect City,Ford,40.46031,-88.09532,242.0,1.0,40.46031,-88.09532,Illinois,40.10173193774704,-89.09195342628459
WATSON,WATSON,KS,Shawnee,1883.0,1899.0,True,6.0,164178,True,16.0,True,WATSON,SHAWNEE,KS,479095.0,Populated Place,Watson,Shawnee,38.98806,-95.55637,330.0,1.0,38.98806,-95.55637,Kansas,38.52652031092821,-97.41166347965247
SUNNYSIDE,SUNNYSIDE,WV,Fayette,1898.0,1901.0,True,6.0,116269,True,3.0,True,SUNNYSIDE,FAYETTE,WV,1556205.0,Populated Place,Sunnyside (historical),Fayette,38.0965,-81.09871,267.0,1.0,38.0965,-81.09871,West Virginia,38.621691901095794,-80.8000481173913
LUDLOW,LUDLOW,OH,Hamilton,1861.0,1867.0,True,7.0,96309,True,6.0,True,LUDLOW,HAMILTON,OH,1989708.0,Post Office,Ludlow Post Office,Hamilton,39.16395,-84.54022,160.0,1.0,39.16395,-84.54022,Ohio,40.152075305199205,-82.69208475815202
WAUSHARA,WAUSHARA,KS,Lyon,1858.0,1895.0,True,6.0,164223,True,37.0,True,WAUSHARA,LYON,KS,482033.0,Locale,Waushara (historical),Lyon,38.73806,-96.04388,379.0,1.0,38.73806,-96.04388,Kansas,38.52652031092821,-97.41166347965247
BAD RIVER,BAD RIVER,WI,Ashland,1882.0,1890.0,True,7.0,66729,True,8.0,True,BAD RIVER,ASHLAND,WI,1577209.0,Civil,Bad River Reservation,Ashland,46.5312701,-90.6754785,224.0,,46.5312701,-90.6754785,Wisconsin,44.176831579177936,-89.75962788128719
PLYMOUTH,PLYMOUTH,MS,Pontotoc,1887.0,1908.0,True,5.0,45927,True,21.0,True,PLYMOUTH,PONTOTOC,MS,690946.0,Locale,Plymouth (historical),Pontotoc,34.2056623,-88.9097808,104.0,1.0,34.2056623,-88.9097808,Mississippi,32.904513690654625,-89.66801400419865
LANTANA,LANTANA,KY,Jackson,1902.0,1903.0,True,6.0,93814,True,1.0,True,LANTANA,JACKSON,KY,2504991.0,Post Office,Lantana Post Office (historical),Jackson,37.3694,-84.11409,284.0,1.0,37.3694,-84.11409,Kentucky,37.61319005289673,-84.68927476511334
ENTERPRISE,ENTERPRISE,IA,Polk,1903.0,1920.0,True,3.0,81278,True,17.0,True,ENTERPRISE,POLK,IA,2047495.0,Post Office,Enterprise Post Office (historical),Polk,41.73193,-93.53021,306.0,1.0,41.73193,-93.53021,Iowa,41.92312560548421,-93.1251007552586
BROOKVALE,BROOKVALE,CO,Clear Creek,1876.0,1942.0,False,2.0,128603,True,66.0,True,BROOKVALE,CLEAR CREEK,CO,182045.0,Populated Place,Brookvale,Clear Creek,39.62971,-105.4192,2316.0,1.0,39.62971,-105.4192,Colorado,38.89860521444695,-105.65747381489842
TRAVELLERS REST,TRAVELLERS REST,GA,Macon,1833.0,1852.0,True,5.0,57964,True,19.0,True,TRAVELERS REST,MACON,GA,346986.0,Populated Place,Travelers Rest,Macon,32.2812697,-84.028796,98.0,0.933333333333333,32.2812697,-84.028796,Georgia,33.12832351739887,-83.74456450104394
WONDER,WONDER,KY,Floyd,1913.0,1944.0,True,1.0,122912,True,31.0,True,WONDER,FLOYD,KY,509399.0,Populated Place,Wonder,Floyd,37.63371,-82.60654,222.0,1.0,37.63371,-82.60654,Kentucky,37.61319005289673,-84.68927476511334
AUGUSTA,AUGUSTA,IA,Des Moines,1837.0,1938.0,True,2.0,66446,True,101.0,True,AUGUSTA,DES MOINES,IA,1995110.0,Post Office,Augusta Post Office (historical),Des Moines,40.7580948,-91.2757054,177.0,1.0,40.7580948,-91.2757054,Iowa,41.92312560548421,-93.1251007552586
WELDON,WELDON,MO,Maries,1871.0,1924.0,False,3.0,60993,True,53.0,True,WELDON,MARIES,MO,1934719.0,Post Office,Weldon Post Office,Maries,38.0958733,-92.0418347,317.0,1.0,38.0958733,-92.0418347,Missouri,38.29739780113773,-92.40621321592816
CONGO,CONGO,WV,Hancock,1887.0,1936.0,True,2.0,75724,True,49.0,True,CONGO,HANCOCK,WV,1554183.0,Populated Place,Congo,Hancock,40.6084,-80.63591,207.0,1.0,40.6084,-80.63591,West Virginia,38.621691901095794,-80.8000481173913
KARRSVILLE,KARRSVILLE,NJ,Warren,1855.0,1901.0,False,3.0,29881,True,46.0,True,KARRSVILLE,WARREN,NJ,877517.0,Populated Place,Karrsville,Warren,40.8092657,-74.9321144,163.0,1.0,40.8092657,-74.9321144,New Jersey,40.32415021333333,-74.61807680235295
THISTLE,THISTLE,UT,Utah,1881.0,1973.0,False,1.0,161568,True,92.0,True,THISTLE,UTAH,UT,1446533.0,Populated Place,Thistle,Utah,39.99134,-111.4982,1537.0,1.0,39.99134,-111.4982,Utah,39.75664437352246,-111.81141229314422
SABINE,SABINE,TX,Jefferson,1899.0,1964.0,True,1.0,157101,True,65.0,True,SABINE,JEFFERSON,TX,1345801.0,Populated Place,Sabine,Jefferson,29.71994,-93.87155,1.0,1.0,29.71994,-93.87155,Texas,31.49183703480589,-97.29755489625168
BAKERSVILLE,BAKERSVILLE,MD,Washington,1830.0,1903.0,True,4.0,66844,True,73.0,True,BAKERSVILLE,WASHINGTON,MD,589683.0,Populated Place,Bakersville,Washington,39.5148208,-77.7574934,129.0,1.0,39.5148208,-77.7574934,Maryland,39.122077160656936,-76.77834919226278
MARLBORO,MARLBORO(UGH),PA,Chester,1850.0,1900.0,True,3.0,35448,True,50.0,True,MARLBORO,CHESTER,PA,1204103.0,Populated Place,Marlboro,Chester,39.8956647,-75.7041045,131.0,1.0,39.8956647,-75.7041045,Pennsylvania,40.72547983697331,-77.55723820194132
ANGORA,ANGORA,AR,Stone,1906.0,1913.0,False,5.0,1313,True,7.0,True,ANGORA,STONE,AR,45873.0,Church,Angora Church,Stone,35.7842435,-92.3884912,423.0,,35.7842435,-92.3884912,Arkansas,35.01494461423343,-92.50292319068728
COLLEGE,COLLEGE,UT,Cache,1893.0,1904.0,True,6.0,131845,True,11.0,True,COLLEGE,CACHE,UT,1439893.0,Populated Place,College School,Cache,41.67688,-111.8799,1370.0,1.0,41.67688,-111.8799,Utah,39.75664437352246,-111.81141229314422
HARSTINE ISLAND,HARSTINE ISLAND,WA,Mason,1892.0,1926.0,True,2.0,140633,True,34.0,True,HARSTINE ISLAND,MASON,WA,1511026.0,Populated Place,Harstine Island,Mason,47.27648,-122.8871,18.0,1.0,47.27648,-122.8871,Washington,47.38130745950554,-121.08638959931798
KNIGHTS,KNIGHTS,AL,Coosa,1895.0,1902.0,True,5.0,30778,True,7.0,True,KNIGHTS,COOSA,AL,135702.0,Locale,Knights (historical),Coosa,32.7917935,-86.4046977,161.0,1.0,32.7917935,-86.4046977,Alabama,33.03209749119171,-86.72512276024179
FRUITDALE,FRUITDALE,SD,Butte,1910.0,1975.0,True,1.0,138032,True,65.0,True,FRUITDALE,BUTTE,SD,1255175.0,Populated Place,Fruitdale,Butte,44.66832,-103.6971,899.0,1.0,44.66832,-103.6971,South Dakota,44.30115526366251,-99.35172597315436
CASHEL,CASHEL,MN,Swift,1895.0,1905.0,True,5.0,73059,True,10.0,True,CASHEL,SWIFT,MN,663761.0,Civil,Township of Cashel,Swift,45.19492,-95.5524,312.0,,45.19492,-95.5524,Minnesota,45.838668873886334,-94.26161293179725
TAVERN,TAVERN,AL,Winston,1890.0,1907.0,True,5.0,56805,True,17.0,True,TAVERN,WINSTON,AL,167144.0,Post Office,Tavern Post Office (historical),Winston,34.24277,-87.18945,270.0,1.0,34.24277,-87.18945,Alabama,33.03209749119171,-86.72512276024179
CUTLER CITY,CUTLER CITY,OR,Lincoln,1930.0,1965.0,True,1.0,133217,True,35.0,True,CUTLER CITY,LINCOLN,OR,1165544.0,Post Office,Cutler City Post Office,Lincoln,44.96,-124.0121,26.0,1.0,44.96,-124.0121,Oregon,44.44548039933444,-121.82370232945092
DAMASCUS,DAMASCUS,MO,St. Clair,1895.0,1906.0,True,5.0,14154,True,11.0,True,DAMASCUS,ST. CLAIR,MO,758428.0,Locale,Damascus,St. Clair,38.1072506,-93.6896541,268.0,1.0,38.1072506,-93.6896541,Missouri,38.29739780113773,-92.40621321592816
ADDINGHAM,ADDINGHAM,PA,Delaware,1891.0,1931.0,True,1.0,278,True,40.0,True,ADDINGHAM,DELAWARE,PA,1197519.0,Populated Place,Addingham,Delaware,39.9423344,-75.3046311,71.0,1.0,39.9423344,-75.3046311,Pennsylvania,40.72547983697331,-77.55723820194132
LORING,LORING,ND,Dunn,1909.0,1916.0,True,4.0,146663,True,7.0,True,LORING,DUNN,ND,1030020.0,Cemetery,Loring Cemetery,Dunn,47.25557,-102.2321,671.0,1.0,47.25557,-102.2321,North Dakota,47.49648331707317,-99.80502257317072
BRONSON,BRONSON,OH,Huron,1830.0,1867.0,True,3.0,70899,True,37.0,True,BRONSON,HURON,OH,1038342.0,Cemetery,Bronson Cemetery,Huron,41.1767126,-82.6390625,244.0,1.0,41.1767126,-82.6390625,Ohio,40.152075305199205,-82.69208475815202
POWELL VALLEY,POWELL VALLEY,OR,Multnomah,1894.0,1903.0,True,6.0,154561,True,9.0,True,POWELL VALLEY,MULTNOMAH,OR,1165812.0,Post Office,Powell Valley Post Office (historical),Multnomah,45.48651,-122.3934,139.0,1.0,45.48651,-122.3934,Oregon,44.44548039933444,-121.82370232945092
GEDDES,GEDDES,MI,Washtenaw,1875.0,1901.0,False,7.0,84585,True,26.0,True,GEDDES,WASHTENAW,MI,2646730.0,Post Office,Geddes Post Office (historical),Washtenaw,42.26694,-83.66778,248.0,1.0,42.26694,-83.66778,Michigan,43.64460033559263,-84.97948272513034
SAINT AGNES,SAINT AGNES,MN,Swift,1880.0,1882.0,True,7.0,111339,True,2.0,True,SAINT AGNES,SWIFT,MN,2065698.0,Cemetery,Saint Agnes Cemetery,Swift,45.38333,-96.00194,340.0,1.0,45.38333,-96.00194,Minnesota,45.838668873886334,-94.26161293179725
RUSCOE,RUSCOE,ND,Ransom,1881.0,1883.0,True,8.0,156991,True,2.0,True,RUSCOE,RANSOM,ND,1034585.0,Locale,Ruscoe (historical),Ransom,46.3683,-97.77843,395.0,1.0,46.3683,-97.77843,North Dakota,47.49648331707317,-99.80502257317072
CLEAR CREEK,CLEAR CREEK,NE,Saunders,1870.0,1884.0,True,5.0,131344,True,14.0,True,CLEAR CREEK,SAUNDERS,NE,1897576.0,Post Office,Clear Creek Post Office,Saunders,41.24445,-96.39585,354.0,1.0,41.24445,-96.39585,Nebraska,41.26900677053825,-98.51318587346552
GRAND PRAIRIE,GRAND PRAIRIE,LA,Plaquemines,1854.0,1895.0,False,4.0,23382,True,41.0,True,GRAND PRAIRIE,PLAQUEMINES,LA,558649.0,Populated Place,Grand Prairie (historical),Plaquemines,29.4852167,-89.6864528,2.0,1.0,29.4852167,-89.6864528,Louisiana,31.25885839387474,-91.9906807220234
LEITH,LEITH,OH,Washington,1891.0,1942.0,True,2.0,94431,True,51.0,True,LEITH,WASHINGTON,OH,1076232.0,Populated Place,Leith,Washington,39.45535,-81.15039,188.0,1.0,39.45535,-81.15039,Ohio,40.152075305199205,-82.69208475815202
HADLEYVILLE,HADLEYVILLE,WI,Eau Claire,1877.0,1903.0,True,5.0,86894,True,26.0,True,HADLEYVILLE,EAU CLAIRE,WI,1565959.0,Cemetery,Hadleyville Cemetery,Eau Claire,44.68306,-91.48626,286.0,1.0,44.68306,-91.48626,Wisconsin,44.176831579177936,-89.75962788128719
DONOHOE,DONOHOE,PA,Westmoreland,1905.0,1907.0,True,6.0,15623,True,2.0,True,DONOHOE,WESTMORELAND,PA,1173382.0,Populated Place,Donohoe,Westmoreland,40.3142358,-79.4744832,360.0,1.0,40.3142358,-79.4744832,Pennsylvania,40.72547983697331,-77.55723820194132
GLENZAIDA,GLENZAIDA,AL,Jackson,1899.0,1906.0,True,5.0,22817,True,7.0,True,GLENZAIDA,JACKSON,AL,1959042.0,Populated Place,Glenzaida,Jackson,34.6959163,-85.8041402,433.0,1.0,34.6959163,-85.8041402,Alabama,33.03209749119171,-86.72512276024179
PARFREYVILLE,PARFREYVILLE,WI,Waupaca,1894.0,1897.0,True,7.0,105094,True,3.0,True,PARFREYVILLE,WAUPACA,WI,1571033.0,Populated Place,Parfreyville,Waupaca,44.31276,-89.13123,263.0,1.0,44.31276,-89.13123,Wisconsin,44.176831579177936,-89.75962788128719
SWIMLEY,SWIMLEY,VA,Clarke,1902.0,1952.0,True,1.0,116524,True,50.0,True,SWIMLEY,CLARKE,VA,1477798.0,Populated Place,Swimley,Clarke,39.24288,-78.0075,166.0,1.0,39.24288,-78.0075,Virginia,37.59297044544598,-78.73498313891332
OAKGROVE,OAKGROVE,CA,San Diego,1870.0,1900.0,False,6.0,151469,True,30.0,True,OAK GROVE,SAN DIEGO,CA,272744.0,Populated Place,Oak Grove,San Diego,33.38503,-116.7892,849.0,0.875,33.38503,-116.7892,California,37.39580678039404,-120.4122934166266
DOVER MILLS,DOVER MILLS,IA,Fayette,1889.0,1894.0,True,6.0,79019,True,5.0,True,DOVER MILLS,FAYETTE,IA,1944986.0,Post Office,Dover Mills Post Office (historical),Fayette,43.01942,-91.72932,263.0,1.0,43.01942,-91.72932,Iowa,41.92312560548421,-93.1251007552586
PENELOPE,PENELOPE,NC,Burke,1888.0,1904.0,True,6.0,105699,True,16.0,True,PENELOPE,BURKE,NC,1021862.0,Populated Place,Penelope,Burke,35.72902,-81.39981,349.0,1.0,35.72902,-81.39981,North Carolina,35.65762478682171,-79.85172837217462
COOSA VALLEY,COOSA VALLEY,AL,Saint Clair,1856.0,1908.0,True,4.0,12522,True,52.0,True,COOSA VALLEY,ST. CLAIR,AL,164624.0,Populated Place,Coosa Valley,St. Clair,33.5523269,-86.2691438,146.0,1.0,33.5523269,-86.2691438,Alabama,33.03209749119171,-86.72512276024179
DELTA,DELTA,IL,Alexander,1900.0,1920.0,True,3.0,78132,True,20.0,True,DELTA,ALEXANDER,IL,407113.0,School,Delta School,Alexander,37.28949,-89.34147,150.0,1.0,37.28949,-89.34147,Illinois,40.10173193774704,-89.09195342628459
ALASKA,ALASKA,WI,Kewaunee,1870.0,1904.0,True,5.0,64760,True,34.0,True,ALASKA,KEWAUNEE,WI,1560724.0,Populated Place,Alaska,Kewaunee,44.5405547,-87.5011977,220.0,1.0,44.5405547,-87.5011977,Wisconsin,44.176831579177936,-89.75962788128719
EDENBURG,EDENBURG(H),VA,Shenandoah,1844.0,1903.0,True,4.0,80185,True,59.0,True,EDENBURG,SHENANDOAH,VA,1494215.0,Populated Place,Edenburg,Shenandoah,38.82095,-78.56585,247.0,1.0,38.82095,-78.56585,Virginia,37.59297044544598,-78.73498313891332
HULL,HULL,IA,Boone,1872.0,1879.0,True,7.0,90157,True,7.0,True,HULL,BOONE,IA,466503.0,Post Office,Hull Post Office (historical),Boone,41.9911,-93.79606,336.0,1.0,41.9911,-93.79606,Iowa,41.92312560548421,-93.1251007552586
FARRELL,FARRELL,NV,Pershing,1907.0,1911.0,True,5.0,136754,True,4.0,True,FARRELL,PERSHING,NV,864385.0,Post Office,Farrell Post Office,Pershing,40.52435,-118.729,1547.0,1.0,40.52435,-118.729,Nevada,39.29768467980296,-116.98912003284072
BLOOMFIELD,BLOOMFIELD,IA,Clinton,1842.0,1843.0,True,9.0,69448,True,1.0,True,BLOOMFIELD,CLINTON,IA,454702.0,Cemetery,Bloomfield Cemetery,Clinton,41.9458576,-90.6195815,255.0,1.0,41.9458576,-90.6195815,Iowa,41.92312560548421,-93.1251007552586
WEST END,WEST END,PA,Bedford,1848.0,1918.0,True,3.0,61408,True,70.0,True,WEST END,BEDFORD,PA,1214504.0,Post Office,West End Post Office (historical),Bedford,39.952026,-78.7486309,550.0,1.0,39.952026,-78.7486309,Pennsylvania,40.72547983697331,-77.55723820194132
LYNCH,LYNCH,WV,Harrison,1899.0,1911.0,True,4.0,96494,True,12.0,True,LYNCH,HARRISON,WV,1555029.0,Populated Place,Lynch,Harrison,39.28509,-80.48426,311.0,1.0,39.28509,-80.48426,West Virginia,38.621691901095794,-80.8000481173913
GILMORE,GILMORE,AK,,1906.0,1911.0,True,8.0,138731,True,5.0,True,GILMORE,FAIRBANKS NORTH STAR,AK,1402575.0,Populated Place,Gilmore (historical),Fairbanks North Star,64.98917,-147.5361,291.0,1.0,64.98917,-147.5361,Alaska,60.97705223333333,-148.14889333333332
MERMAID,MERMAID,DE,New Castle,1848.0,1900.0,True,6.0,98804,True,52.0,True,MERMAID,NEW CASTLE,DE,216153.0,Populated Place,Mermaid,New Castle,39.74289,-75.69299,86.0,1.0,39.74289,-75.69299,Delaware,39.12948861968085,-75.52349290159574
MONTGOMERY,MONTGOMERY,TN,Morgan,1856.0,1894.0,True,3.0,38182,True,38.0,True,MONTGOMERY,MORGAN,TN,1309676.0,Populated Place,Montgomery (historical),Morgan,36.1136866,-84.6143849,313.0,1.0,36.1136866,-84.6143849,Tennessee,35.90304088108576,-85.8669100795989
BEREA,BEREA,NC,Granville,1841.0,1931.0,True,2.0,68424,True,90.0,True,BEREA,GRANVILLE,NC,981027.0,Populated Place,Berea,Granville,36.3206989,-78.741671,155.0,1.0,36.3206989,-78.741671,North Carolina,35.65762478682171,-79.85172837217462
GATEWAY,GATEWAY,FL,Broward,1951.0,1952.0,True,1.0,22020,True,1.0,True,GATEWAY,BROWARD,FL,2783427.0,Post Office,Gateway Post Office,Broward,26.1409099,-80.1209924,2.0,1.0,26.1409099,-80.1209924,Florida,29.149179605277045,-82.70831202058048
HATTON,HATTON,WY,Albany,1883.0,1902.0,True,6.0,140754,True,19.0,True,HATTON,ALBANY,WY,1597346.0,Populated Place,Hatton,Albany,41.30497,-105.9833,2282.0,1.0,41.30497,-105.9833,Wyoming,42.75029837696335,-107.0840345549738
HAYWOOD,HAYWOOD,GA,Chattooga,1880.0,1902.0,False,5.0,25749,True,22.0,True,HAYWOOD,CHATTOOGA,GA,344455.0,Populated Place,Haywood (historical),Chattooga,34.4911977,-85.184118,209.0,1.0,34.4911977,-85.184118,Georgia,33.12832351739887,-83.74456450104394
BRENIZER,BRENIZER,MT,Wibaux,1909.0,1919.0,True,4.0,128351,True,10.0,True,BRENIZER,WIBAUX,MT,1696622.0,Post Office,Brenizer Post Office (historical),Wibaux,47.07446,-104.0666,836.0,1.0,47.07446,-104.0666,Montana,47.00211326959847,-109.90853677501592
KENO,KENO,MS,Marion,1884.0,1908.0,False,5.0,30193,True,24.0,True,KENO,MARION,MS,710555.0,Populated Place,Keno (historical),Marion,31.2001785,-89.7786888,46.0,1.0,31.2001785,-89.7786888,Mississippi,32.904513690654625,-89.66801400419865
MIDDLETOWN,MIDDLETOWN,AL,Butler,1829.0,1843.0,True,7.0,37162,True,14.0,True,MIDDLETON,BUTLER,AL,166045.0,Post Office,Middleton Post Office (historical),Butler,31.5776612,-86.5530226,120.0,0.9,31.5776612,-86.5530226,Alabama,33.03209749119171,-86.72512276024179
VERNLEDGE,VERNLEDGE,AL,Crenshaw,1894.0,1900.0,True,6.0,59433,True,6.0,True,VERNLEDGE,CRENSHAW,AL,157197.0,Populated Place,Vernledge,Crenshaw,31.771266,-86.2927404,133.0,1.0,31.771266,-86.2927404,Alabama,33.03209749119171,-86.72512276024179
SMITH CREEK,SMITH CREEK,FL,Wakulla,1872.0,1930.0,True,2.0,53280,True,58.0,True,SMITH CREEK,WAKULLA,FL,304740.0,Populated Place,Smith Creek,Wakulla,30.1818671,-84.6568524,22.0,1.0,30.1818671,-84.6568524,Florida,29.149179605277045,-82.70831202058048
JERUSALEM SOUTH,JERUSALEM SOUTH,NY,Nassau,1838.0,1868.0,True,3.0,29358,True,30.0,True,JERUSALEM SOUTH,NASSAU,NY,964724.0,Populated Place,Jerusalem South,Nassau,40.6659344,-73.4881809,3.0,1.0,40.6659344,-73.4881809,New York,42.62246135933227,-75.57093866626391
CORINTH,CORINTH,WV,Barbour,1871.0,1874.0,True,8.0,76043,True,3.0,True,CORINTH,BARBOUR,WV,1537688.0,Church,Corinth Church,Barbour,39.14955,-79.88341,434.0,,39.14955,-79.88341,West Virginia,38.621691901095794,-80.8000481173913
PISGAH,PISGAH,TX,Eastland,1900.0,1903.0,True,6.0,153888,True,3.0,True,PISGAH,EASTLAND,TX,1344133.0,Cemetery,Pisgah Cemetery,Eastland,32.30235,-99.04507,511.0,1.0,32.30235,-99.04507,Texas,31.49183703480589,-97.29755489625168
RADEC,RADEC,CA,Riverside,1885.0,1901.0,False,7.0,155102,True,16.0,True,RADEC,RIVERSIDE,CA,252960.0,Populated Place,Radec,Riverside,33.4642,-116.9139,520.0,1.0,33.4642,-116.9139,California,37.39580678039404,-120.4122934166266
ELVIRA,ELVIRA,AL,Shelby,1907.0,1926.0,True,3.0,18315,True,19.0,True,ELVIRA,SHELBY,AL,156314.0,Populated Place,Elvira,Shelby,33.3234453,-86.8658233,147.0,1.0,33.3234453,-86.8658233,Alabama,33.03209749119171,-86.72512276024179
FARMER'S STATION,FARMER'S STATION,IN,Owen,1869.0,1882.0,True,3.0,82180,True,13.0,True,FARMERS STATION,OWEN,IN,434398.0,Populated Place,Farmers Station,Owen,39.17532,-86.89167,180.0,0.9375,39.17532,-86.89167,Indiana,39.762828507259336,-86.22832405360336
ARIOLA,ARIOLA,TX,Hardin,1901.0,1907.0,True,5.0,125263,True,6.0,True,ARIOLA,HARDIN,TX,1340738.0,Populated Place,Ariola,Hardin,30.26577,-94.19963,18.0,1.0,30.26577,-94.19963,Texas,31.49183703480589,-97.29755489625168
HOMESTEAD,HOMESTEAD,OK,Blaine,1893.0,1974.0,True,1.0,141849,True,81.0,True,HOMESTEAD,BLAINE,OK,1093872.0,Populated Place,Homestead,Blaine,36.14976,-98.39396,382.0,1.0,36.14976,-98.39396,Oklahoma,35.38883142739951,-96.9653676538146
MEADOR,MEADOR,WV,Mingo,1902.0,1997.0,False,1.0,98433,True,95.0,True,MEADOR,MINGO,WV,1555093.0,Populated Place,Meador,Mingo,37.619,-82.06235,364.0,1.0,37.619,-82.06235,West Virginia,38.621691901095794,-80.8000481173913
PIERCEVILLE,PIERCEVILLE,KS,Finney,1873.0,1989.0,True,1.0,153645,True,116.0,True,PIERCEVILLE,FINNEY,KS,471624.0,Populated Place,Pierceville,Finney,37.87836,-100.6768,838.0,1.0,37.87836,-100.6768,Kansas,38.52652031092821,-97.41166347965247
BRAYS,BRAYS,TN,Hancock,1885.0,1903.0,True,5.0,6640,True,18.0,True,BRAYS,HANCOCK,TN,1314727.0,Populated Place,Brays,Hancock,36.4234216,-83.3276766,354.0,1.0,36.4234216,-83.3276766,Tennessee,35.90304088108576,-85.8669100795989
SOUTH BRIDGEWATER,SOUTH BRIDGEWATER (2),MA,Plymouth,1851.0,1959.0,True,2.0,53768,True,108.0,True,SOUTH BRIDGEWATER,PLYMOUTH,MA,1976553.0,Post Office,South Bridgewater Post Office,Plymouth,41.9944444,-70.9734795,15.0,1.0,41.9944444,-70.9734795,Massachusetts,42.24690810801527,-71.56362919796437
ROCKRUN STATION,ROCKRUN STATION,AL,Cherokee,1890.0,1943.0,True,2.0,49287,True,53.0,True,ROCKRUN,CHEROKEE,AL,155218.0,Populated Place,Rockrun,Cherokee,34.027877,-85.4952362,223.0,1.0,34.027877,-85.4952362,Alabama,33.03209749119171,-86.72512276024179
COTTONDALE,COTTONDALE,TX,Wise,1875.0,1912.0,True,4.0,132504,True,37.0,True,COTTONDALE,WISE,TX,1378164.0,Populated Place,Cottondale,Wise,33.06595,-97.70475,241.0,1.0,33.06595,-97.70475,Texas,31.49183703480589,-97.29755489625168
SPRING CREEK,SPRING CREEK,GA,Early,1835.0,1866.0,True,7.0,54588,True,31.0,True,SPRING CREEK,EARLY,GA,344939.0,School,Spring Creek School (historical),Early,31.4737847,-84.8410333,86.0,1.0,31.4737847,-84.8410333,Georgia,33.12832351739887,-83.74456450104394
CALIFORNIA,CALIFORNIA,OH,Clermont,1819.0,1865.0,True,5.0,72223,True,46.0,True,CALIFORNIA,CLERMONT,OH,1966258.0,Post Office,California Post Office,Clermont,39.06117,-84.09993,271.0,1.0,39.06117,-84.09993,Ohio,40.152075305199205,-82.69208475815202
PLEASANT VALLEY,PLEASANT VALLEY,MI,Midland,1876.0,1910.0,True,5.0,106858,True,34.0,True,PLEASANT VALLEY,MIDLAND,MI,2544200.0,Post Office,Pleasant Valley Post Office (historical),Midland,43.50972,-84.58806,213.0,1.0,43.50972,-84.58806,Michigan,43.64460033559263,-84.97948272513034
PLAIN,PLAIN,WA,Chelan,1913.0,1936.0,True,2.0,153948,True,23.0,True,PLAIN,CHELAN,WA,1524497.0,Populated Place,Plain,Chelan,47.76262,-120.6573,570.0,1.0,47.76262,-120.6573,Washington,47.38130745950554,-121.08638959931798
PARADISE,PARADISE,MO,Clay,1858.0,1907.0,False,4.0,43738,True,49.0,True,PARADISE,CLAY,MO,730173.0,Populated Place,Paradise,Clay,39.4274994,-94.5157859,282.0,1.0,39.4274994,-94.5157859,Missouri,38.29739780113773,-92.40621321592816
WATERVILLE,WATERVILLE,NE,Boone,1874.0,1877.0,True,8.0,164161,True,3.0,True,WATERVILLE,BOONE,NE,1880786.0,Post Office,Waterville Post Office,Boone,41.57009,-97.86632,507.0,1.0,41.57009,-97.86632,Nebraska,41.26900677053825,-98.51318587346552
ROYALTON,ROYALTON,PA,Dauphin,1892.0,1959.0,True,1.0,49968,True,67.0,True,ROYALTON,DAUPHIN,PA,1185590.0,Populated Place,Royalton,Dauphin,40.1873144,-76.7299693,91.0,1.0,40.1873144,-76.7299693,Pennsylvania,40.72547983697331,-77.55723820194132
BEETS,BEETS,WV,Fayette,1882.0,1894.0,True,5.0,67965,True,12.0,True,BEETS,FAYETTE,WV,1554698.0,Populated Place,Beets,Fayette,38.1173327,-81.0056551,653.0,1.0,38.1173327,-81.0056551,West Virginia,38.621691901095794,-80.8000481173913
NEWMANS GROVE,NEWMANS GROVE,MS,Warren,1907.0,1909.0,True,5.0,40523,True,2.0,True,NEWMANS GROVE,WARREN,MS,692105.0,Populated Place,Newmans Grove,Warren,32.3459795,-90.7709358,95.0,1.0,32.3459795,-90.7709358,Mississippi,32.904513690654625,-89.66801400419865
HOUSTON,HOUSTON,KS,Graham,1875.0,1887.0,True,6.0,142113,True,12.0,True,HOUSTON,GRAHAM,KS,482219.0,Locale,Houston (historical),Graham,39.56251,-99.80595,693.0,1.0,39.56251,-99.80595,Kansas,38.52652031092821,-97.41166347965247
YARMOUTH FARMS,YARMOUTH FARMS,MA,Barnstable,1889.0,1901.0,True,7.0,63908,True,12.0,True,YARMOUTH FARMS,BARNSTABLE,MA,618843.0,Post Office,Yarmouth Farms Post Office (historical),Barnstable,41.6903884,-70.1805748,7.0,1.0,41.6903884,-70.1805748,Massachusetts,42.24690810801527,-71.56362919796437
ADDISON,ADDISON,WI,Washington,1850.0,1905.0,True,4.0,64547,True,55.0,True,ADDISON,WASHINGTON,WI,1560691.0,Populated Place,Addison,Washington,43.4227761,-88.3745423,320.0,1.0,43.4227761,-88.3745423,Wisconsin,44.176831579177936,-89.75962788128719
WHEATLAND,WHEATLAND (1),MI,Hillsdale,1835.0,1837.0,True,9.0,121639,True,2.0,True,WHEATLAND,HILLSDALE,MI,2418293.0,Post Office,Wheatland Post Office (historical),Hillsdale,41.97111,-84.40111,335.0,1.0,41.97111,-84.40111,Michigan,43.64460033559263,-84.97948272513034
ROCK HILL,ROCK HILL,KY,Larue,1854.0,1854.0,True,8.0,110085,True,0.0,True,OAK HILL,LARUE,KY,2569464.0,Post Office,Oak Hill Post Office (historical),Larue,37.4707,-85.8085,246.0,0.7777778,37.4707,-85.8085,Kentucky,37.61319005289673,-84.68927476511334
BEEKS,BEEKS,GA,Pike,1884.0,1903.0,True,5.0,3902,True,19.0,True,BEEKS,PIKE,GA,346393.0,Populated Place,Beeks (historical),Pike,33.1687324,-84.4079794,268.0,1.0,33.1687324,-84.4079794,Georgia,33.12832351739887,-83.74456450104394
APACHE,APACHE,NM,Union,1877.0,1882.0,True,9.0,125067,True,5.0,True,APACHE,UNION,NM,938042.0,Post Office,Apache Post Office (historical),Union,33.32536,-105.9028,1886.0,1.0,33.32536,-105.9028,New Mexico,34.73405899346405,-105.84728810457516
HAYS MILL,HAYS MILL,AL,Limestone,1892.0,1901.0,True,5.0,25729,True,9.0,True,HAYS MILL,LIMESTONE,AL,119904.0,Populated Place,Hays Mill,Limestone,34.8800865,-86.9697293,234.0,1.0,34.8800865,-86.9697293,Alabama,33.03209749119171,-86.72512276024179
HOLMES,HOLMES,SC,Edgefield,1884.0,1890.0,True,6.0,27140,True,6.0,True,HOLMES,EDGEFIELD,SC,1223249.0,Cemetery,Holmes Cemetery,Edgefield,33.8642945,-81.8331624,178.0,1.0,33.8642945,-81.8331624,South Carolina,34.12136880118953,-81.13033261165741
NETTLETON,NETTLETON,OH,Champaign,1888.0,1892.0,True,6.0,101758,True,4.0,True,NETTLETON,CHAMPAIGN,OH,1965558.0,Post Office,Nettleton Post Office (historical),Champaign,40.11811,-83.87354,318.0,1.0,40.11811,-83.87354,Ohio,40.152075305199205,-82.69208475815202
ASHAWA,ASHAWA,MN,Saint Louis,1903.0,1908.0,True,2.0,66137,True,5.0,True,ASHAWA,ST. LOUIS,MN,2126529.0,Post Office,Ashawa Post Office,St. Louis,47.8516799,-92.6883388,399.0,1.0,47.8516799,-92.6883388,Minnesota,45.838668873886334,-94.26161293179725
OCQUEOC,OCQUEOC,MI,Presque Isle,1885.0,1973.0,True,1.0,103601,True,88.0,True,OCQUEOC,PRESQUE ISLE,MI,2373988.0,Post Office,Ocqueoc Post Office (historical),Presque Isle,45.40833,-84.09,234.0,1.0,45.40833,-84.09,Michigan,43.64460033559263,-84.97948272513034
ASHTON,ASHTON,PA,Carbon,1873.0,1877.0,True,5.0,2006,True,4.0,True,ASHTON,CARBON,PA,1213978.0,Populated Place,Ashton,Carbon,40.8317563,-75.8824208,347.0,1.0,40.8317563,-75.8824208,Pennsylvania,40.72547983697331,-77.55723820194132
LOUISVILLE,LOUISVILLE,WI,Dunn,1865.0,1900.0,True,5.0,96075,True,35.0,True,LOUISVILLE,DUNN,WI,1578243.0,School,Louisville School (historical),Dunn,44.75635,-91.86323,254.0,1.0,44.75635,-91.86323,Wisconsin,44.176831579177936,-89.75962788128719
CONSTITUTION,CONSTITUTION,OH,Washington,1842.0,1978.0,True,1.0,75800,True,136.0,True,CONSTITUTION,WASHINGTON,OH,1062708.0,Populated Place,Constitution,Washington,39.34813,-81.55457,183.0,1.0,39.34813,-81.55457,Ohio,40.152075305199205,-82.69208475815202
WILLIAMSBURG,WILLIAMSBURG(H),MD,Dorchester,1858.0,1983.0,False,1.0,122283,True,125.0,True,WILLIAMSBURG,DORCHESTER,MD,596746.0,Post Office,Williamsburg Post Office (historical),Dorchester,38.65762,-75.82882,12.0,1.0,38.65762,-75.82882,Maryland,39.122077160656936,-76.77834919226278
CHESTNUT CREEK,CHESTNUT CREEK,AL,Chilton,1833.0,1879.0,False,7.0,10539,True,46.0,True,CHESTNUT CREEK,CHILTON,AL,157924.0,Populated Place,Chestnut Creek,Chilton,32.7751276,-86.5455347,142.0,1.0,32.7751276,-86.5455347,Alabama,33.03209749119171,-86.72512276024179
OLDTOWN,OLDTOWN,MS,Calhoun,1896.0,1912.0,False,4.0,42525,True,16.0,True,OLD TOWN,CALHOUN,MS,675264.0,Cemetery,Old Town Cemetery,Calhoun,33.9832987,-89.2920307,104.0,0.857142857142857,33.9832987,-89.2920307,Mississippi,32.904513690654625,-89.66801400419865
BROOKLYN,BROOKLYN,WV,Fayette,1930.0,1966.0,True,1.0,70949,True,36.0,True,BROOKLYN,FAYETTE,WV,1553983.0,Populated Place,Brooklyn,Fayette,37.9909458,-81.0487102,498.0,1.0,37.9909458,-81.0487102,West Virginia,38.621691901095794,-80.8000481173913
LANCASTER,LANCASTER,IL,Cass,1837.0,1882.0,True,3.0,93679,True,45.0,True,LANCASTER,CASS,IL,415602.0,Populated Place,Lancaster,Cass,39.92394,-90.11734,189.0,1.0,39.92394,-90.11734,Illinois,40.10173193774704,-89.09195342628459
CURRIE,CURRIE,TX,Navarro,1921.0,1932.0,True,2.0,133157,True,11.0,True,CURRIE,NAVARRO,TX,1378194.0,Populated Place,Currie,Navarro,31.86377,-96.44359,125.0,1.0,31.86377,-96.44359,Texas,31.49183703480589,-97.29755489625168
SHORE ACRES,SHORE ACRES,NJ,Ocean,1948.0,1960.0,True,1.0,52594,True,12.0,True,SHORE ACRES,OCEAN,NJ,880575.0,Populated Place,Shore Acres,Ocean,40.0253949,-74.1015271,1.0,1.0,40.0253949,-74.1015271,New Jersey,40.32415021333333,-74.61807680235295
VIAN,VIAN,NE,Cherry,1910.0,1935.0,True,2.0,163331,True,25.0,True,VIAN,CHERRY,NE,834380.0,Locale,Vian Ranch,Cherry,42.40361,-100.5085,887.0,,42.40361,-100.5085,Nebraska,41.26900677053825,-98.51318587346552
MISSION,MISSION,NC,Stanly,1880.0,1906.0,True,5.0,99715,True,26.0,True,MISSION,STANLY,NC,990080.0,Church,Mission Church,Stanly,35.32348,-80.39784,211.0,,35.32348,-80.39784,North Carolina,35.65762478682171,-79.85172837217462
CENTRAL POINT,CENTRAL POINT,OH,Shelby,1868.0,1869.0,True,9.0,73544,True,1.0,True,CENTRE POINT,SHELBY,OH,1065208.0,Populated Place,Centre Point,Shelby,40.29116,-84.32161,299.0,0.8461538,40.29116,-84.32161,Ohio,40.152075305199205,-82.69208475815202
NEW BETHEL,NEW BETHEL,IN,Marion,1839.0,1854.0,False,8.0,101838,True,15.0,True,NEW BETHEL,MARION,IN,440019.0,Populated Place,New Bethel,Marion,39.70449,-86.0097,256.0,1.0,39.70449,-86.0097,Indiana,39.762828507259336,-86.22832405360336
OLLIE,OLLIE,NE,Butler,1872.0,1873.0,True,6.0,151860,True,1.0,True,OLLIE,BUTLER,NE,1881388.0,Post Office,Ollie Post Office,Butler,41.25308,-97.13051,493.0,1.0,41.25308,-97.13051,Nebraska,41.26900677053825,-98.51318587346552
LETON,LETON,LA,Webster,1894.0,1919.0,True,4.0,32471,True,25.0,True,LETON,WEBSTER,LA,536410.0,Populated Place,Leton,Webster,32.8601425,-93.2526679,70.0,1.0,32.8601425,-93.2526679,Louisiana,31.25885839387474,-91.9906807220234
CONWAY,CONWAY (2),ND,Walsh,1885.0,1961.0,True,1.0,132179,True,76.0,True,CONWAY,WALSH,ND,1028443.0,Populated Place,Conway,Walsh,48.23833,-97.67509,299.0,1.0,48.23833,-97.67509,North Dakota,47.49648331707317,-99.80502257317072
TORINO,TORINO,IL,Will,1906.0,1920.0,True,2.0,117803,True,14.0,True,TORINO,WILL,IL,423250.0,Populated Place,Torino (historical),Will,41.20587,-88.23478,181.0,1.0,41.20587,-88.23478,Illinois,40.10173193774704,-89.09195342628459
NEWFOUND,NEWFOUND,WV,Wyoming,1881.0,1920.0,True,3.0,102351,True,39.0,True,NEWFOUND,WYOMING,WV,1555214.0,Populated Place,Newfound,Wyoming,37.60734,-81.47649,586.0,1.0,37.60734,-81.47649,West Virginia,38.621691901095794,-80.8000481173913
UPTON,UPTON,TX,Bastrop,1894.0,1929.0,True,3.0,162839,True,35.0,True,UPTON,BASTROP,TX,1379197.0,Populated Place,Upton,Bastrop,30.01133,-97.26416,104.0,1.0,30.01133,-97.26416,Texas,31.49183703480589,-97.29755489625168
MARTINEZ,MARTINEZ,MI,Mecosta,1875.0,1880.0,True,7.0,97597,True,5.0,True,MARTINY,MECOSTA,MI,631679.0,Cemetery,Martiny Cemetery,Mecosta,43.68529,-85.30976,327.0,0.75,43.68529,-85.30976,Michigan,43.64460033559263,-84.97948272513034
MAY,MAY,AR,Stone,1911.0,1914.0,True,5.0,35913,True,3.0,True,MAY,STONE,AR,65833.0,Populated Place,May (historical),Stone,35.9722958,-92.4009921,349.0,1.0,35.9722958,-92.4009921,Arkansas,35.01494461423343,-92.50292319068728
SPURGEON,SPURGEON,MO,Newton,1884.0,1912.0,True,4.0,54793,True,28.0,True,SPURGEON,NEWTON,MO,726971.0,Populated Place,Spurgeon,Newton,36.9345088,-94.4716104,321.0,1.0,36.9345088,-94.4716104,Missouri,38.29739780113773,-92.40621321592816
PARKINSON,PARKINSON,MI,Gratiot,1887.0,1895.0,False,5.0,105182,True,8.0,True,PARKINSON,GRATIOT,MI,2562118.0,Post Office,Parkinson Post Office (historical),Gratiot,43.45917,-84.68611,238.0,1.0,43.45917,-84.68611,Michigan,43.64460033559263,-84.97948272513034
MCGLYNN,McGLYNN,OR,Lane,1923.0,1938.0,True,3.0,148205,True,15.0,True,MCGLYNN,LANE,OR,1164504.0,Post Office,McGlynn Post Office (historical),Lane,44.02957,-123.5298,141.0,1.0,44.02957,-123.5298,Oregon,44.44548039933444,-121.82370232945092
WHITESVILLE,WHITESVILLE,NJ,Ocean,1884.0,1943.0,True,2.0,62440,True,59.0,True,WHITESVILLE,OCEAN,NJ,881804.0,Populated Place,Whitesville,Ocean,40.0681712,-74.2718118,26.0,1.0,40.0681712,-74.2718118,New Jersey,40.32415021333333,-74.61807680235295
PINE RIDGE,PINE RIDGE,WY,Crook,1910.0,1912.0,True,6.0,153752,True,2.0,True,PINE RIDGE,CROOK,WY,1704301.0,Mine,Pine Ridge Mine,Crook,44.47748,-104.8716,1403.0,,44.47748,-104.8716,Wyoming,42.75029837696335,-107.0840345549738
MENDENHALL,MENDENHALL,AR,Nevada,1891.0,1901.0,True,5.0,36789,True,10.0,True,MENDENHALL,NEVADA,AR,58163.0,Populated Place,Mendenhall,Nevada,33.5553942,-93.1257225,101.0,1.0,33.5553942,-93.1257225,Arkansas,35.01494461423343,-92.50292319068728
SULPHUR SPRINGS,SULPHUR SPRINGS,KS,Cloud,1875.0,1895.0,True,6.0,160593,True,20.0,True,SULPHUR SPRINGS,CLOUD,KS,482104.0,Locale,Sulphur Springs (historical),Cloud,39.40805,-97.4992,475.0,1.0,39.40805,-97.4992,Kansas,38.52652031092821,-97.41166347965247
CRAMER,CRAMER,CA,Tulare,1882.0,1891.0,True,6.0,132719,True,9.0,True,CRAMER,TULARE,CA,1661031.0,Populated Place,Cramer,Tulare,36.22023,-118.8173,551.0,1.0,36.22023,-118.8173,California,37.39580678039404,-120.4122934166266
PAXTANG,PAXTANG,PA,Dauphin,1898.0,1917.0,True,2.0,44151,True,19.0,True,PAXTANG,DAUPHIN,PA,1183401.0,Populated Place,Paxtang,Dauphin,40.2589785,-76.8319167,112.0,1.0,40.2589785,-76.8319167,Pennsylvania,40.72547983697331,-77.55723820194132
PORT PERRY,PORT PERRY,PA,Allegheny,1850.0,1930.0,True,2.0,46334,True,80.0,True,PORT PERRY,ALLEGHENY,PA,1204437.0,Populated Place,Port Perry,Allegheny,40.3909024,-79.8494928,236.0,1.0,40.3909024,-79.8494928,Pennsylvania,40.72547983697331,-77.55723820194132
KEYWEST,KEYWEST,OK,Lincoln,1908.0,1909.0,True,6.0,144114,True,1.0,True,KEY WEST,LINCOLN,OK,1763672.0,Locale,Key West,Lincoln,35.70563,-96.62668,269.0,0.8571429,35.70563,-96.62668,Oklahoma,35.38883142739951,-96.9653676538146
ELLISBURG,ELLISBURG(H),NJ,Camden,1852.0,1900.0,False,3.0,18127,True,48.0,True,ELLISBURG,CAMDEN,NJ,2340295.0,Post Office,Ellisburg Post Office,Camden,39.9252735,-74.9997084,26.0,1.0,39.9252735,-74.9997084,New Jersey,40.32415021333333,-74.61807680235295
CASON,CASON,FL,Lake,1886.0,1904.0,True,4.0,9280,True,18.0,True,CASON,LAKE,FL,303681.0,Locale,Cason,Lake,28.693882,-81.9423031,34.0,1.0,28.693882,-81.9423031,Florida,29.149179605277045,-82.70831202058048
NEW HOPE,NEW HOPE,FL,Suwannee,1874.0,1874.0,True,6.0,40196,True,0.0,True,NEW HOPE,SUWANNEE,FL,287636.0,Church,New Hope Church,Suwannee,30.3485556,-82.9504093,36.0,,30.3485556,-82.9504093,Florida,29.149179605277045,-82.70831202058048
EWING,EWING,MT,Carbon,1898.0,1908.0,True,5.0,136442,True,10.0,True,EWING,CARBON,MT,1726759.0,Post Office,Ewing Post Office (historical),Carbon,45.08329,-108.3007,2005.0,1.0,45.08329,-108.3007,Montana,47.00211326959847,-109.90853677501592
LEE,LEE,MI,Allegan,1877.0,1931.0,True,1.0,94293,True,54.0,True,LEE,ALLEGAN,MI,2573911.0,Post Office,Lee Post Office (historical),Allegan,42.45083,-86.09083,199.0,1.0,42.45083,-86.09083,Michigan,43.64460033559263,-84.97948272513034
HENRIETTA,HENRIETTA,MN,Hubbard,1892.0,1894.0,True,7.0,88493,True,2.0,True,HENRIETTA,HUBBARD,MN,644880.0,Cemetery,Henrietta Cemetery,Hubbard,46.92255,-94.9535,440.0,1.0,46.92255,-94.9535,Minnesota,45.838668873886334,-94.26161293179725
SHORTLEAF,SHORTLEAF,AL,Marengo,1910.0,1959.0,True,1.0,52627,True,49.0,True,SHORTLEAF,MARENGO,AL,126820.0,Populated Place,Shortleaf,Marengo,32.511803,-87.8555692,30.0,1.0,32.511803,-87.8555692,Alabama,33.03209749119171,-86.72512276024179
FARMERSVILLE,FARMERSVILLE,MO,Livingston,1867.0,1901.0,True,4.0,19609,True,34.0,True,FARMERSVILLE,LIVINGSTON,MO,717854.0,Populated Place,Farmersville,Livingston,39.9608489,-93.5418818,229.0,1.0,39.9608489,-93.5418818,Missouri,38.29739780113773,-92.40621321592816
KERENS,KERENS,MO,Butler,1903.0,1920.0,True,3.0,30261,True,17.0,True,KERENS,BUTLER,MO,751105.0,Populated Place,Kerens,Butler,36.7775548,-90.6051171,134.0,1.0,36.7775548,-90.6051171,Missouri,38.29739780113773,-92.40621321592816
STERLING RUN,STERLING RUN,PA,Cameron,1862.0,1965.0,True,1.0,55251,True,103.0,True,STERLING RUN,CAMERON,PA,1199617.0,Populated Place,Sterling Run,Cameron,41.4147848,-78.1988969,278.0,1.0,41.4147848,-78.1988969,Pennsylvania,40.72547983697331,-77.55723820194132
LOCKE HILL,LOCKE HILL,TX,Bexar,1869.0,1881.0,True,7.0,146305,True,12.0,True,LOCKE HILL,BEXAR,TX,1340306.0,Cemetery,Locke Hill Cemetery,Bexar,29.54162,-98.58085,298.0,1.0,29.54162,-98.58085,Texas,31.49183703480589,-97.29755489625168
HAREWOOD,HAREWOOD,MD,Baltimore,1839.0,1871.0,False,7.0,87474,True,32.0,True,HAREWOOD,BALTIMORE,MD,590415.0,Populated Place,Harewood,Baltimore,39.37316,-76.3444,6.0,1.0,39.37316,-76.3444,Maryland,39.122077160656936,-76.77834919226278
PITTSBURGH,PITTSBURGH,OR,Columbia,1879.0,1892.0,True,6.0,153921,True,13.0,True,PITTSBURGH,COLUMBIA,OR,1165794.0,Post Office,Pittsburgh Post Office,Columbia,45.90067,-123.1523,180.0,1.0,45.90067,-123.1523,Oregon,44.44548039933444,-121.82370232945092
LONGTOWN,LONGTOWN,NC,Yadkin,1875.0,1907.0,True,5.0,95870,True,32.0,True,LONGTOWN,YADKIN,NC,989020.0,Populated Place,Longtown,Yadkin,36.14764,-80.77035,318.0,1.0,36.14764,-80.77035,North Carolina,35.65762478682171,-79.85172837217462
WINTERS STATION,WINTERS STATION,OH,Sandusky,1861.0,1873.0,True,7.0,122729,True,12.0,True,WINTERS STATION,SANDUSKY,OH,2044075.0,Post Office,Winters Station Post Office,Sandusky,41.26736,-83.24816,214.0,1.0,41.26736,-83.24816,Ohio,40.152075305199205,-82.69208475815202
ALLIGERVILLE,ALLIGERVILLE,NY,Ulster,1902.0,1954.0,True,1.0,838,True,52.0,True,ALLIGERVILLE,ULSTER,NY,942381.0,Populated Place,Alligerville,Ulster,41.7959265,-74.1790347,67.0,1.0,41.7959265,-74.1790347,New York,42.62246135933227,-75.57093866626391
SOUTH ONONDAGA,SOUTH ONONDAGA,NY,Onondaga,1828.0,1907.0,True,1.0,54091,True,79.0,True,SOUTH ONONDAGA,ONONDAGA,NY,965832.0,Populated Place,South Onondaga,Onondaga,42.9303443,-76.2127047,180.0,1.0,42.9303443,-76.2127047,New York,42.62246135933227,-75.57093866626391
LASSITER,LASSITER,LA,De Soto,1882.0,1885.0,True,7.0,31745,True,3.0,True,LASSITER,DE SOTO,LA,1630267.0,Post Office,Lassiter Post Office,De Soto,31.9287762,-93.6310141,81.0,1.0,31.9287762,-93.6310141,Louisiana,31.25885839387474,-91.9906807220234
SCOTTSVILLE,SCOTTSVILLE,MO,Sullivan,1849.0,1892.0,True,4.0,51542,True,43.0,True,SCOTTSVILLE,SULLIVAN,MO,733958.0,School,Scottsville School (historical),Sullivan,40.0833525,-93.2054865,277.0,1.0,40.0833525,-93.2054865,Missouri,38.29739780113773,-92.40621321592816
LILAC,LILAC,CA,San Diego,1898.0,1912.0,True,4.0,145977,True,14.0,True,LILAC,SAN DIEGO,CA,1660910.0,Populated Place,Lilac,San Diego,33.28781,-117.0839,223.0,1.0,33.28781,-117.0839,California,37.39580678039404,-120.4122934166266
HALIFAX,HALIFAX,FL,Volusia,1887.0,1894.0,True,5.0,24640,True,7.0,True,HALIFAX,VOLUSIA,FL,295980.0,Locale,Halifax Shopping Center,Volusia,29.2308142,-81.0275553,1.0,,29.2308142,-81.0275553,Florida,29.149179605277045,-82.70831202058048
STRONER,STRONER,WY,Crook,1919.0,1962.0,True,1.0,160468,True,43.0,True,STRONER,CROOK,WY,1597063.0,Populated Place,Stroner,Crook,44.76665,-105.0455,1220.0,1.0,44.76665,-105.0455,Wyoming,42.75029837696335,-107.0840345549738
PARKWOOD,PARKWOOD,GA,Glynn,1906.0,1917.0,False,4.0,43900,True,11.0,True,PARKWOOD,GLYNN,GA,1671568.0,Populated Place,Parkwood,Glynn,31.2268957,-81.5070467,4.0,1.0,31.2268957,-81.5070467,Georgia,33.12832351739887,-83.74456450104394
SAUNDER'S TOWN,SAUNDER'S TOWN,GA,Pickens,1856.0,1866.0,True,8.0,51213,True,10.0,True,SANDERSTOWN,PICKENS,GA,356579.0,Populated Place,Sanderstown,Pickens,34.5092563,-84.5049279,332.0,0.846153846153846,34.5092563,-84.5049279,Georgia,33.12832351739887,-83.74456450104394
MIDDLEPOINT,MIDDLEPOINT,KY,Knox,1889.0,1892.0,True,6.0,99049,True,3.0,True,MIDDLEPOINT,KNOX,KY,2554669.0,Post Office,Middlepoint Post Office (historical),Knox,36.74251,-83.9148,322.0,1.0,36.74251,-83.9148,Kentucky,37.61319005289673,-84.68927476511334
NEWTONVILLE,NEWTONVILLE,SC,Marlboro,1884.0,1917.0,True,4.0,40611,True,33.0,True,NEWTONVILLE,MARLBORO,SC,1231590.0,Populated Place,Newtonville,Marlboro,34.708492,-79.6381122,68.0,1.0,34.708492,-79.6381122,South Carolina,34.12136880118953,-81.13033261165741
SPERRY,SPERRY,ND,Richland,1892.0,1913.0,True,3.0,159652,True,21.0,True,SPERRY,RICHLAND,ND,1033756.0,Populated Place,Sperry,Richland,46.49968,-96.75758,284.0,1.0,46.49968,-96.75758,North Dakota,47.49648331707317,-99.80502257317072
VETO,VETO,MO,Maries,1902.0,1932.0,True,2.0,59507,True,30.0,True,VETO,MARIES,MO,744691.0,Locale,Veto (historical),Maries,38.0678202,-91.7801606,344.0,1.0,38.0678202,-91.7801606,Missouri,38.29739780113773,-92.40621321592816
PERRY PARK,PERRY PARK (1),KY,Owen,1932.0,1941.0,True,2.0,105886,True,9.0,True,PERRY PARK,OWEN,KY,2793996.0,Post Office,Perry Park Post Office,Owen,38.54803,-84.9992,145.0,1.0,38.54803,-84.9992,Kentucky,37.61319005289673,-84.68927476511334
PEDRO,PEDRO,FL,Marion,1889.0,1918.0,False,4.0,44377,True,29.0,True,PEDRO,MARION,FL,294884.0,Populated Place,Pedro,Marion,28.981648,-82.1198117,24.0,1.0,28.981648,-82.1198117,Florida,29.149179605277045,-82.70831202058048
LE ROY,LE ROY,IA,Decatur,1881.0,1957.0,True,1.0,94144,True,76.0,True,LE ROY,DECATUR,IA,1969727.0,Post Office,Le Roy Post Office (historical),Decatur,40.87778,-93.59272,340.0,1.0,40.87778,-93.59272,Iowa,41.92312560548421,-93.1251007552586
PINE VALLEY,PINE VALLEY,OH,Jefferson,1885.0,1907.0,True,3.0,106431,True,22.0,True,PINE VALLEY,JEFFERSON,OH,2015511.0,Post Office,Pine Valley Post Office (historical),Jefferson,40.20424,-80.76786,222.0,1.0,40.20424,-80.76786,Ohio,40.152075305199205,-82.69208475815202
GLENELLEN,GLENELLEN,TN,Montgomery,1884.0,1899.0,True,5.0,22739,True,15.0,True,GLENELLEN,MONTGOMERY,TN,1285499.0,School,Glenellen School,Montgomery,36.6050472,-87.3536191,171.0,1.0,36.6050472,-87.3536191,Tennessee,35.90304088108576,-85.8669100795989
LISBON,LISBON,AR,Union,1847.0,1931.0,False,2.0,33029,True,84.0,True,LISBON,UNION,AR,83883.0,Post Office,Lisbon Post Office (historical),Union,33.2729055,-92.827384,65.0,1.0,33.2729055,-92.827384,Arkansas,35.01494461423343,-92.50292319068728
BOYD,BOYD,FL,Taylor,1904.0,1958.0,True,1.0,6315,True,54.0,True,BOYD,TAYLOR,FL,279301.0,Populated Place,Boyd,Taylor,30.1891005,-83.6065385,17.0,1.0,30.1891005,-83.6065385,Florida,29.149179605277045,-82.70831202058048
SIDNEY,SIDNEY,SD,Perkins,1910.0,1914.0,True,5.0,158805,True,4.0,True,SIDNEY,PERKINS,SD,1260929.0,School,Sidney School,Perkins,45.69722,-102.7449,780.0,1.0,45.69722,-102.7449,South Dakota,44.30115526366251,-99.35172597315436
AGAWAM,AGAWAM,OK,Grady,1909.0,1918.0,True,4.0,124096,True,9.0,True,AGAWAM,GRADY,OK,1089548.0,Populated Place,Agawam,Grady,34.8734,-97.94615,378.0,1.0,34.8734,-97.94615,Oklahoma,35.38883142739951,-96.9653676538146
CRAFT,CRAFT,WI,Chippewa,1885.0,1886.0,True,8.0,76457,True,1.0,True,CRAFT,CHIPPEWA,WI,1577648.0,Populated Place,Craft,Chippewa,44.95052,-91.53766,299.0,1.0,44.95052,-91.53766,Wisconsin,44.176831579177936,-89.75962788128719
DUNCAN'S,DUNCAN'S,TN,Hardeman,1828.0,1829.0,True,9.0,16263,True,1.0,True,DUNCAN,HARDEMAN,TN,1283148.0,Cemetery,Duncan Cemetery,Hardeman,35.3878519,-89.0942257,140.0,0.75,35.3878519,-89.0942257,Tennessee,35.90304088108576,-85.8669100795989
WHITE MARSH,WHITE MARSH,NC,Columbus,1837.0,1853.0,False,7.0,121801,True,16.0,True,WHITE MARSH,COLUMBUS,NC,997145.0,Church,White Marsh Church,Columbus,34.35017,-78.65335,18.0,,34.35017,-78.65335,North Carolina,35.65762478682171,-79.85172837217462
LA PORTE,LA PORTE,NE,Wayne,1871.0,1884.0,True,7.0,144739,True,13.0,True,LA PORTE,WAYNE,NE,1880584.0,Post Office,La Porte Post Office (historical),Wayne,42.2075,-96.95921,468.0,1.0,42.2075,-96.95921,Nebraska,41.26900677053825,-98.51318587346552
VESTA,VESTA,IN,Clark,1884.0,1902.0,True,4.0,119457,True,18.0,True,VESTA,CLARK,IN,445264.0,Populated Place,Vesta,Clark,38.48506,-85.55052,207.0,1.0,38.48506,-85.55052,Indiana,39.762828507259336,-86.22832405360336
SABINAL,SABINAL,NM,Socorro,1866.0,1907.0,False,4.0,157100,True,41.0,True,SABINAL,SOCORRO,NM,937884.0,Post Office,Sabinal Post Office (historical),Socorro,34.49367,-106.8075,1461.0,1.0,34.49367,-106.8075,New Mexico,34.73405899346405,-105.84728810457516
BROWNS STATION,BROWNS STATION,MO,Boone,1875.0,1957.0,True,1.0,7308,True,82.0,True,BROWNS STATION,BOONE,MO,714801.0,Populated Place,Browns Station,Boone,39.0500407,-92.2612924,280.0,1.0,39.0500407,-92.2612924,Missouri,38.29739780113773,-92.40621321592816
HAVACO,HAVACO,WV,McDowell,1914.0,1992.0,True,1.0,87946,True,78.0,True,HAVACO,MCDOWELL,WV,1540071.0,Populated Place,Havaco,McDowell,37.41011,-81.57733,412.0,1.0,37.41011,-81.57733,West Virginia,38.621691901095794,-80.8000481173913
PRIDE,PRIDE,VA,Dinwiddie,1890.0,1901.0,True,5.0,107822,True,11.0,True,PRIDE,DINWIDDIE,VA,1465671.0,Populated Place,Pride,Dinwiddie,37.03876,-77.64332,91.0,1.0,37.03876,-77.64332,Virginia,37.59297044544598,-78.73498313891332
MAINVILLE,MAIN(E)VILLE (1),OH,Warren,1854.0,1919.0,True,3.0,96853,True,65.0,True,MAINEVILLE,WARREN,OH,2796427.0,Post Office,Maineville Post Office,Warren,39.31997,-84.22005,243.0,1.0,39.31997,-84.22005,Ohio,40.152075305199205,-82.69208475815202
MEDIX RUN,MEDIX RUN,PA,Elk,1877.0,1939.0,True,2.0,36652,True,62.0,True,MEDIX RUN,ELK,PA,1180861.0,Populated Place,Medix Run,Elk,41.2900605,-78.3972388,327.0,1.0,41.2900605,-78.3972388,Pennsylvania,40.72547983697331,-77.55723820194132
PAULINE,PAULINE,TX,Henderson,1912.0,1921.0,True,3.0,153049,True,9.0,True,PAULINE,HENDERSON,TX,1378839.0,Populated Place,Pauline,Henderson,32.33792,-96.05386,123.0,1.0,32.33792,-96.05386,Texas,31.49183703480589,-97.29755489625168
SHELL CREEK,SHELL CREEK,TN,Carter,1882.0,1955.0,True,1.0,52300,True,73.0,True,SHELL CREEK,CARTER,TN,1303557.0,Populated Place,Shell Creek,Carter,36.1892877,-82.0426204,813.0,1.0,36.1892877,-82.0426204,Tennessee,35.90304088108576,-85.8669100795989
VAIDEN,VAIDEN,AL,Perry,1900.0,1906.0,True,5.0,59040,True,6.0,True,VAIDEN,PERRY,AL,157194.0,Populated Place,Vaiden,Perry,32.5198561,-87.3711102,59.0,1.0,32.5198561,-87.3711102,Alabama,33.03209749119171,-86.72512276024179
REDBRIDGE,REDBRIDGE,OH,Pike,1895.0,1895.0,True,7.0,108833,True,0.0,True,RED BRIDGE,PIKE,OH,1055219.0,School,Red Bridge School (historical),Pike,39.1209,-83.02879,176.0,0.8888889,39.1209,-83.02879,Ohio,40.152075305199205,-82.69208475815202
CENTER,CENTER,SD,McCook,1900.0,1904.0,True,6.0,130448,True,4.0,True,CENTER,MCCOOK,SD,1254294.0,Locale,Center,McCook,43.83303,-97.34895,485.0,1.0,43.83303,-97.34895,South Dakota,44.30115526366251,-99.35172597315436
BEECH CREEK,BEECH CREEK,AR,Ashley,1869.0,1891.0,False,5.0,3846,True,22.0,True,BEECH CREEK,ASHLEY,AR,76282.0,Populated Place,Beech Creek,Ashley,33.3184501,-91.937077,34.0,1.0,33.3184501,-91.937077,Arkansas,35.01494461423343,-92.50292319068728
CRITTON,CRITTON,WV,Hampshire,1907.0,1908.0,True,7.0,76759,True,1.0,True,CRITTON,HAMPSHIRE,WV,1556755.0,School,Critton School (historical),Hampshire,39.45787,-78.4589,339.0,1.0,39.45787,-78.4589,West Virginia,38.621691901095794,-80.8000481173913
WOODCLIFF LAKE,WOODCLIFF LAKE,NJ,Bergen,1907.0,1966.0,True,1.0,63436,True,59.0,True,WOODCLIFF LAKE,BERGEN,NJ,2781429.0,Post Office,Woodcliff Lake Post Office,Bergen,41.0165101,-74.0409273,32.0,1.0,41.0165101,-74.0409273,New Jersey,40.32415021333333,-74.61807680235295
NEWALD,NEWALD,WI,Forest,1905.0,1995.0,True,1.0,102264,True,90.0,True,NEWALD,FOREST,WI,1580002.0,Populated Place,Newald,Forest,45.73857,-88.70539,479.0,1.0,45.73857,-88.70539,Wisconsin,44.176831579177936,-89.75962788128719
APPIN,APPIN,MI,Huron,1894.0,1904.0,True,6.0,65719,True,10.0,True,APPIN,HURON,MI,2548605.0,Post Office,Appin Post Office (historical),Huron,43.7208333,-83.0402778,231.0,1.0,43.7208333,-83.0402778,Michigan,43.64460033559263,-84.97948272513034
WILLETT,WILLETT,SD,Harding,1909.0,1952.0,True,1.0,165102,True,43.0,True,WILLETT,HARDING,SD,1263410.0,Locale,Willett (historical),Harding,45.81472,-103.8935,905.0,1.0,45.81472,-103.8935,South Dakota,44.30115526366251,-99.35172597315436
VAN METRE,VAN METRE,SD,Jones,1907.0,1960.0,True,1.0,163051,True,53.0,True,VAN METRE,JONES,SD,1265406.0,Populated Place,Van Metre,Jones,44.15943,-100.7938,515.0,1.0,44.15943,-100.7938,South Dakota,44.30115526366251,-99.35172597315436
KILDAHL,KILDAHL,ND,Ramsey,1885.0,1893.0,True,5.0,144158,True,8.0,True,KEILDAHL,RAMSEY,ND,1033767.0,Populated Place,Keildahl,Ramsey,48.09334,-98.75261,453.0,0.8571429,48.09334,-98.75261,North Dakota,47.49648331707317,-99.80502257317072
SHERWIN CITY,SHERWIN CITY,KS,Cherokee,1886.0,1887.0,True,5.0,158641,True,1.0,True,CHERWIN CITY,CHEROKEE,KS,484447.0,Populated Place,Cherwin City,Cherokee,37.18006,-94.94774,262.0,0.9166667,37.18006,-94.94774,Kansas,38.52652031092821,-97.41166347965247
HOG CREEK,HOG CREEK,OH,Allen,1841.0,1878.0,False,6.0,89252,True,37.0,True,HOG CREEK,ALLEN,OH,1061489.0,Populated Place,Hog Creek,Allen,40.73255,-83.87994,308.0,1.0,40.73255,-83.87994,Ohio,40.152075305199205,-82.69208475815202
FREW,FREW,KY,Leslie,1905.0,1984.0,False,1.0,83955,True,79.0,True,FREW,LESLIE,KY,2363132.0,Post Office,Frew Post Office (historical),Leslie,37.18286,-83.24574,322.0,1.0,37.18286,-83.24574,Kentucky,37.61319005289673,-84.68927476511334
ELLER,ELLER,NC,Davidson,1911.0,1923.0,True,3.0,80760,True,12.0,True,ELLER,DAVIDSON,NC,1021443.0,Populated Place,Eller,Davidson,35.95347,-80.2181,275.0,1.0,35.95347,-80.2181,North Carolina,35.65762478682171,-79.85172837217462
HYGEIA SPRINGS,HYGEIA SPRINGS,TN,Robertson,1890.0,1904.0,True,5.0,28221,True,14.0,True,HYGEIA SPRINGS,ROBERTSON,TN,1926758.0,Post Office,Hygeia Springs Post Office (historical),Robertson,36.4131038,-86.7911086,245.0,1.0,36.4131038,-86.7911086,Tennessee,35.90304088108576,-85.8669100795989
IVY,IVY,AR,Dallas,1882.0,1953.0,True,1.0,28868,True,71.0,True,IVY,DALLAS,AR,57068.0,Populated Place,Ivy,Dallas,34.1281541,-92.5296021,79.0,1.0,34.1281541,-92.5296021,Arkansas,35.01494461423343,-92.50292319068728
BROTHERTON,BROTHERTON,MI,Houghton,1889.0,1896.0,True,6.0,71010,True,7.0,True,BROTHERTON,HOUGHTON,MI,2124153.0,Post Office,Brotherton Post Office (historical),Houghton,46.6244444,-88.925,397.0,1.0,46.6244444,-88.925,Michigan,43.64460033559263,-84.97948272513034
OWENS,OWENS,FL,DeSoto,1884.0,1910.0,True,4.0,43326,True,26.0,True,OWENS,DESOTO,FL,294286.0,Cemetery,Owens Cemetery,DeSoto,27.1831904,-81.9238091,16.0,1.0,27.1831904,-81.9238091,Florida,29.149179605277045,-82.70831202058048
JARVIS,JARVIS,IN,Dekalb,1859.0,1868.0,True,7.0,91315,True,9.0,True,JARVIS,DEKALB,IN,431897.0,Populated Place,Jarvis,DeKalb,41.42977,-84.87135,264.0,1.0,41.42977,-84.87135,Indiana,39.762828507259336,-86.22832405360336
CADDO,CADDO,KY,Pendleton,1887.0,1903.0,False,4.0,72107,True,16.0,True,CADDO,PENDLETON,KY,2564233.0,Post Office,Caddo Post Office (historical),Pendleton,38.74626,-84.24489,275.0,1.0,38.74626,-84.24489,Kentucky,37.61319005289673,-84.68927476511334
GRANT,GRANT,TX,Burleson,1896.0,1918.0,True,4.0,139505,True,22.0,True,GRANT,BURLESON,TX,1358279.0,Locale,Grant,Burleson,30.57437,-96.48774,72.0,1.0,30.57437,-96.48774,Texas,31.49183703480589,-97.29755489625168
DANA,DANA,CA,Shasta,1888.0,1951.0,True,1.0,133372,True,63.0,True,DANA,SHASTA,CA,259035.0,Populated Place,Dana,Shasta,41.11155,-121.5647,1016.0,1.0,41.11155,-121.5647,California,37.39580678039404,-120.4122934166266
RICHMOND MILLS,RICHMOND MILLS,NY,Ontario,1844.0,1906.0,True,3.0,48562,True,62.0,True,RICHMOND MILLS,ONTARIO,NY,2364509.0,Populated Place,Richmond Mills (historical),Ontario,42.8263889,-77.5727778,278.0,1.0,42.8263889,-77.5727778,New York,42.62246135933227,-75.57093866626391
LONDONBRIDGE,LONDONBRIDGE,VA,Princess Anne,1823.0,1959.0,True,1.0,95708,True,136.0,True,LONDONBRIDGE,VIRGINIA BEACH,VA,1499684.0,Populated Place,Londonbridge,Virginia Beach (city),36.84182,-76.04965,5.0,1.0,36.84182,-76.04965,Virginia,37.59297044544598,-78.73498313891332
MALVERN,MALVERN,TX,Leon,1900.0,1925.0,True,3.0,147355,True,25.0,True,MALVERN,LEON,TX,1380133.0,Populated Place,Malvern,Leon,31.33546,-95.70356,63.0,1.0,31.33546,-95.70356,Texas,31.49183703480589,-97.29755489625168
SORRENTO,SORRENTO,CA,San Diego,1888.0,1959.0,False,1.0,159415,True,71.0,True,SORRENTO,SAN DIEGO,CA,1656634.0,Populated Place,Sorrento,San Diego,32.90088,-117.2231,11.0,1.0,32.90088,-117.2231,California,37.39580678039404,-120.4122934166266
ANDERSON,ANDERSON,OR,Harney,1908.0,1910.0,True,7.0,124871,True,2.0,True,ANDERSON,HARNEY,OR,1164182.0,Post Office,Anderson Post Office (historical),Harney,43.09849,-118.403,1420.0,1.0,43.09849,-118.403,Oregon,44.44548039933444,-121.82370232945092
ROWEVILLE,ROWEVILLE,TX,Montgomery,1881.0,1882.0,True,8.0,156822,True,1.0,True,GROCEVILLE,MONTGOMERY,TX,1381216.0,Populated Place,Groceville,Montgomery,30.34104,-95.3341,59.0,0.7777778,30.34104,-95.3341,Texas,31.49183703480589,-97.29755489625168
MOUNTVILLE,MOUNTVILLE,VA,Loudoun,1817.0,1954.0,False,1.0,100921,True,137.0,True,MOUNTVILLE,LOUDOUN,VA,1495980.0,Populated Place,Mountville,Loudoun,39.02539,-77.71194,149.0,1.0,39.02539,-77.71194,Virginia,37.59297044544598,-78.73498313891332
GRIT,GRIT,VA,Pittsylvania,1905.0,1908.0,True,6.0,86564,True,3.0,True,GRIT,PITTSYLVANIA,VA,1477377.0,Populated Place,Grit,Pittsylvania,37.07625,-79.2478,239.0,1.0,37.07625,-79.2478,Virginia,37.59297044544598,-78.73498313891332
LAURAMIE,LAURAMIE,IN,Tippecanoe,1846.0,1856.0,True,8.0,93958,True,10.0,True,LAURAMIE,TIPPECANOE,IN,453543.0,Civil,Lauramie Township,Tippecanoe,40.25801,-86.78072,240.0,1.0,40.25801,-86.78072,Indiana,39.762828507259336,-86.22832405360336
CALDWELL,CALDWELL,NY,Warren,1816.0,1904.0,False,4.0,8338,True,88.0,True,CALDWELL,WARREN,NY,954913.0,Populated Place,Caldwell,Warren,43.4261809,-73.7123408,105.0,1.0,43.4261809,-73.7123408,New York,42.62246135933227,-75.57093866626391
CLARA,CLARA,MD,Wicomico,1901.0,1943.0,True,2.0,74426,True,42.0,True,CLARA,WICOMICO,MD,589981.0,Populated Place,Clara,Wicomico,38.27595,-75.81993,1.0,1.0,38.27595,-75.81993,Maryland,39.122077160656936,-76.77834919226278
NEW BRIGHTON,NEW BRIGHTON,NY,Richmond,1850.0,1917.0,True,1.0,40067,True,67.0,True,NEW BRIGHTON,RICHMOND,NY,958396.0,Populated Place,New Brighton,Richmond,40.6423258,-74.0929195,27.0,1.0,40.6423258,-74.0929195,New York,42.62246135933227,-75.57093866626391
TRAMMEL,TRAMMEL,KY,Allen,1881.0,1959.0,True,1.0,117949,True,78.0,True,TRAMMEL,ALLEN,KY,509228.0,Populated Place,Trammel,Allen,36.78532,-86.35332,225.0,1.0,36.78532,-86.35332,Kentucky,37.61319005289673,-84.68927476511334
HERSHAL,HERSHAL,OR,Baker,1923.0,1930.0,True,5.0,141262,True,7.0,True,HERSHAL,BAKER,OR,1164408.0,Post Office,Hershal Post Office (historical),Baker,44.68349,-118.0233,1242.0,1.0,44.68349,-118.0233,Oregon,44.44548039933444,-121.82370232945092
KENDALL,KENDALL,KY,Hickman,1828.0,1829.0,True,9.0,92348,True,1.0,True,KENDALL,HICKMAN,KY,2775536.0,Cemetery,Kendall Cemetery,Hickman,36.60621,-88.92267,110.0,1.0,36.60621,-88.92267,Kentucky,37.61319005289673,-84.68927476511334
MOUNT LEVI,MOUNT LEVI,AR,Johnson,1875.0,1953.0,True,1.0,38893,True,78.0,True,MOUNT LEVI,JOHNSON,AR,72753.0,Locale,Mount Levi,Johnson,35.6350814,-93.3143456,231.0,1.0,35.6350814,-93.3143456,Arkansas,35.01494461423343,-92.50292319068728
HORACE,HORACE,KS,Greeley,1886.0,1965.0,True,1.0,141992,True,79.0,True,HORACE,GREELEY,KS,471490.0,Populated Place,Horace,Greeley,38.4764,-101.7907,1110.0,1.0,38.4764,-101.7907,Kansas,38.52652031092821,-97.41166347965247
SELMAN,SELMAN,FL,Calhoun,1887.0,1921.0,True,3.0,51821,True,34.0,True,SELMAN,CALHOUN,FL,295610.0,Populated Place,Selman,Calhoun,30.5360285,-85.0285298,30.0,1.0,30.5360285,-85.0285298,Florida,29.149179605277045,-82.70831202058048
LEMON,LEMON,CA,san Diego,1892.0,1895.0,True,7.0,145672,True,3.0,True,LEMON,SAN DIEGO,CA,244731.0,School,Lemon School,San Diego,32.76783,-117.0084,174.0,1.0,32.76783,-117.0084,California,37.39580678039404,-120.4122934166266
FAYETTE,FAYETTE,WA,Lewis,1880.0,1895.0,True,6.0,136801,True,15.0,True,FAYETTE,LEWIS,WA,1514891.0,Populated Place,Fayette,Lewis,46.6476,-123.1179,65.0,1.0,46.6476,-123.1179,Washington,47.38130745950554,-121.08638959931798
IVANHOE,IVANHOE,KS,Haskell,1885.0,1905.0,True,5.0,142972,True,20.0,True,IVANHOE,HASKELL,KS,485331.0,Locale,Ivanhoe (historical),Haskell,37.6528,-100.8741,895.0,1.0,37.6528,-100.8741,Kansas,38.52652031092821,-97.41166347965247
IOLA,IOLA,SC,Anderson,1891.0,1901.0,True,5.0,28575,True,10.0,True,IOLA,ANDERSON,SC,1253381.0,Post Office,Iola Post Office (historical),Anderson,34.5970524,-82.68458,247.0,1.0,34.5970524,-82.68458,South Carolina,34.12136880118953,-81.13033261165741
WALDENSIA,WALDENSIA,TN,Cumberland,1902.0,1930.0,False,2.0,59967,True,28.0,True,WALDENSIA,CUMBERLAND,TN,1314464.0,Populated Place,Waldensia,Cumberland,35.9134047,-84.7918894,546.0,1.0,35.9134047,-84.7918894,Tennessee,35.90304088108576,-85.8669100795989
OTTER POND,OTTER POND,KY,Caldwell,1888.0,1942.0,False,1.0,104568,True,54.0,True,OTTER POND,CALDWELL,KY,508764.0,Populated Place,Otter Pond,Caldwell,37.02783,-87.82307,172.0,1.0,37.02783,-87.82307,Kentucky,37.61319005289673,-84.68927476511334
CONTENTION,CONTENTION,OR,Wheeler,1886.0,1895.0,True,7.0,132166,True,9.0,True,CONTENTION,WHEELER,OR,1166073.0,Post Office,Contention Post Office,Wheeler,44.74374,-120.172,476.0,1.0,44.74374,-120.172,Oregon,44.44548039933444,-121.82370232945092
HUNNEWELL,HUNNEWELL,KY,Greenup,1874.0,1950.0,True,1.0,90220,True,76.0,True,HUNNEWELL,GREENUP,KY,508296.0,Populated Place,Hunnewell,Greenup,38.41341,-82.84544,176.0,1.0,38.41341,-82.84544,Kentucky,37.61319005289673,-84.68927476511334
WININGER,WININGER,AL,Jackson,1890.0,1906.0,True,5.0,63130,True,16.0,True,WININGER,JACKSON,AL,157270.0,Populated Place,Wininger,Jackson,34.7428634,-86.1594272,478.0,1.0,34.7428634,-86.1594272,Alabama,33.03209749119171,-86.72512276024179
COTTEREL,COTTEREL,ID,Cassia,1912.0,1917.0,True,5.0,132495,True,5.0,True,COTTEREL,CASSIA,ID,396331.0,Populated Place,Cotterel,Cassia,42.51713,-113.4592,1375.0,1.0,42.51713,-113.4592,Idaho,44.65880326625387,-114.70573529411764
ENGINEER,ENGINEER,AK,,1909.0,1911.0,True,8.0,136032,True,2.0,True,ENGINEER,FAIRBANKS NORTH STAR,AK,1894264.0,Populated Place,Engineer (historical),Fairbanks North Star,64.93333,-147.6667,262.0,1.0,64.93333,-147.6667,Alaska,60.97705223333333,-148.14889333333332
MCCARTNEY,MCCARTNEY,PA,Clearfield,1892.0,1934.0,True,2.0,36404,True,42.0,True,MCCARTNEY,CLEARFIELD,PA,1180614.0,Populated Place,McCartney,Clearfield,40.8283938,-78.509745,521.0,1.0,40.8283938,-78.509745,Pennsylvania,40.72547983697331,-77.55723820194132
VEALBURG,VEALBURG,KY,Graves,1893.0,1904.0,True,4.0,119279,True,11.0,True,VEALSBURG,GRAVES,KY,509277.0,Populated Place,Vealsburg,Graves,36.60284,-88.54005,162.0,0.875,36.60284,-88.54005,Kentucky,37.61319005289673,-84.68927476511334
SCARLETT,SCARLETT,GA,Camden,1881.0,1884.0,True,6.0,51331,True,3.0,True,SCARLETT,CAMDEN,GA,332989.0,Populated Place,Scarlett,Camden,30.9341207,-81.7637188,5.0,1.0,30.9341207,-81.7637188,Georgia,33.12832351739887,-83.74456450104394
SPENCER'S STATION,SPENCER'S STATION,OH,Guernsey,1857.0,1920.0,True,3.0,114674,True,63.0,True,SPENCER'S STATION,GUERNSEY,OH,1989212.0,Post Office,Spencer's Station Post Office (historical),Guernsey,39.96257,-81.27206,266.0,1.0,39.96257,-81.27206,Ohio,40.152075305199205,-82.69208475815202
NORTH LAMARTINE,NORTH LAMARTINE,WI,Fond du Lac,1856.0,1870.0,True,7.0,102905,True,14.0,True,NORTH LAMARTINE,FOND DU LAC,WI,1570458.0,Cemetery,North Lamartine Cemetery,Fond du Lac,43.76562,-88.57395,274.0,1.0,43.76562,-88.57395,Wisconsin,44.176831579177936,-89.75962788128719
STATLER RUN,STATLER(S) RUN,WV,Monongalia,1861.0,1908.0,True,4.0,115282,True,47.0,True,STATLER RUN,MONONGALIA,WV,1540800.0,Populated Place,Statler Run,Monongalia,39.65814,-80.17118,308.0,1.0,39.65814,-80.17118,West Virginia,38.621691901095794,-80.8000481173913
BRONSON,BRONSON,MN,Kittson,1904.0,1938.0,True,1.0,70895,True,34.0,True,BRONSON,KITTSON,MN,2105936.0,Post Office,Bronson Post Office,Kittson,48.7358051,-96.6633518,294.0,1.0,48.7358051,-96.6633518,Minnesota,45.838668873886334,-94.26161293179725
MALDEN,MALDEN,NY,Ulster,1826.0,1907.0,True,1.0,34876,True,81.0,True,MALDEN,ULSTER,NY,956301.0,Populated Place,Malden,Ulster,42.095368,-73.9340227,25.0,1.0,42.095368,-73.9340227,New York,42.62246135933227,-75.57093866626391
WARDS STORE,WARDS STORE,NC,Robeson,1876.0,1880.0,True,8.0,120351,True,4.0,True,WARDS STORE,ROBESON,NC,996788.0,Locale,Wards Store,Robeson,34.44516,-79.22782,46.0,1.0,34.44516,-79.22782,North Carolina,35.65762478682171,-79.85172837217462
EAST RINDGE,EAST RINDGE,NH,Cheshire,1872.0,1958.0,True,1.0,17149,True,86.0,True,EAST RINDGE,CHESHIRE,NH,866723.0,Populated Place,East Rindge,Cheshire,42.7375858,-71.9659121,337.0,1.0,42.7375858,-71.9659121,New Hampshire,43.49543828295964,-71.55589374304932
HUNTSVILLE,HUNTSVILLE,MS,Montgomery,1872.0,1907.0,True,5.0,28054,True,35.0,True,HUNTSVILLE,MONTGOMERY,MS,671596.0,Populated Place,Huntsville,Montgomery,33.3481807,-89.4611841,122.0,1.0,33.3481807,-89.4611841,Mississippi,32.904513690654625,-89.66801400419865
GROVE,GROVE,MI,Newaygo,1883.0,1903.0,True,5.0,86619,True,20.0,True,GROVE,NEWAYGO,MI,2541837.0,Post Office,Grove Post Office (historical),Newaygo,43.33806,-85.62222,302.0,1.0,43.33806,-85.62222,Michigan,43.64460033559263,-84.97948272513034
TURON,TURON,MS,Itawamba,1897.0,1902.0,True,6.0,58469,True,5.0,True,TURON,ITAWAMBA,MS,678985.0,Populated Place,Turon,Itawamba,34.1042727,-88.3250423,116.0,1.0,34.1042727,-88.3250423,Mississippi,32.904513690654625,-89.66801400419865
TOWN CREEK,TOWN CREEK,MD,Saint Mary's,1850.0,1850.0,True,9.0,117855,True,0.0,True,TOWN CREEK,ST. MARY'S,MD,594992.0,Populated Place,Town Creek,St. Mary's,38.32179,-76.4794,5.0,1.0,38.32179,-76.4794,Maryland,39.122077160656936,-76.77834919226278
PRICHARD,PRICHARD,PA,Luzerne,1888.0,1905.0,True,4.0,46808,True,17.0,True,PRICHARD,LUZERNE,PA,1204448.0,Populated Place,Prichard,Luzerne,41.2550821,-76.1343728,356.0,1.0,41.2550821,-76.1343728,Pennsylvania,40.72547983697331,-77.55723820194132
CLAGETT,CLAGETT,MT,Jefferson,1872.0,1878.0,True,7.0,131168,True,6.0,True,CLAGETT,JEFFERSON,MT,1762490.0,Post Office,Clagett Post Office (historical),Jefferson,46.10687,-111.9258,1391.0,1.0,46.10687,-111.9258,Montana,47.00211326959847,-109.90853677501592
LEAFRIVER,LEAFRIVER,MN,Wadena,1902.0,1908.0,True,5.0,94189,True,6.0,True,LEAF RIVER,WADENA,MN,654788.0,Locale,Leaf River,Wadena,46.48857,-95.08169,403.0,0.8888889,46.48857,-95.08169,Minnesota,45.838668873886334,-94.26161293179725
EATON,EATON,PA,Wyoming,1829.0,1892.0,True,3.0,17404,True,63.0,True,EATON,WYOMING,PA,1173939.0,Populated Place,Eaton,Wyoming,41.5145211,-75.9610331,190.0,1.0,41.5145211,-75.9610331,Pennsylvania,40.72547983697331,-77.55723820194132
CARLIN,CARLIN,SD,Haakon,1906.0,1933.0,True,2.0,129875,True,27.0,True,CARLIN,HAAKON,SD,1264069.0,Locale,Carlin (historical),Haakon,44.67665,-101.2821,570.0,1.0,44.67665,-101.2821,South Dakota,44.30115526366251,-99.35172597315436
URENA,URENA,GA,Banks,1881.0,1905.0,True,5.0,58973,True,24.0,True,UVENA,BANKS,GA,349303.0,Populated Place,Uvena,Banks,34.4434351,-83.4165544,246.0,0.8,34.4434351,-83.4165544,Georgia,33.12832351739887,-83.74456450104394
EGLI,EGLI,OR,Harney,1900.0,1919.0,True,5.0,135365,True,19.0,True,EGLI,HARNEY,OR,1164328.0,Post Office,Egli Post Office (historical),Harney,43.30043,-119.7636,1409.0,1.0,43.30043,-119.7636,Oregon,44.44548039933444,-121.82370232945092
BOSSKO,BOSSKO,SD,Roberts,1892.0,1905.0,True,5.0,128020,True,13.0,True,BOSSKO,ROBERTS,SD,1268554.0,Civil,Township of Bossko,Roberts,45.77557,-97.16536,377.0,,45.77557,-97.16536,South Dakota,44.30115526366251,-99.35172597315436
ABRAMS FALLS,ABRAMS FALLS,VA,Washington,1889.0,1913.0,True,4.0,64392,True,24.0,True,ABRAMS FALLS,WASHINGTON,VA,1462341.0,Church,Abrams Falls Church,Washington,36.6801037,-82.2765279,430.0,,36.6801037,-82.2765279,Virginia,37.59297044544598,-78.73498313891332
SEARS POINT,SEARS POINT,CA,Sonoma,1903.0,1911.0,True,4.0,158146,True,8.0,True,SEARS POINT,SONOMA,CA,252790.0,Populated Place,Sears Point,Sonoma,38.15103,-122.4478,5.0,1.0,38.15103,-122.4478,California,37.39580678039404,-120.4122934166266
RED BLUFF,RED BLUFF,MT,Madison,1874.0,1901.0,True,5.0,155450,True,27.0,True,RED BLUFF,MADISON,MT,1797459.0,Post Office,Red Bluff Post Office (historical),Madison,45.58854,-111.648,1457.0,1.0,45.58854,-111.648,Montana,47.00211326959847,-109.90853677501592
CHISPA,CHISPA,TX,Jeff Davis,1895.0,1900.0,True,5.0,131018,True,5.0,True,CHISPA,JEFF DAVIS,TX,1379544.0,Populated Place,Chispa,Jeff Davis,30.74459,-104.6974,1245.0,1.0,30.74459,-104.6974,Texas,31.49183703480589,-97.29755489625168
CHASE,CHASE,WV,Jackson,1888.0,1898.0,True,5.0,73864,True,10.0,True,CHASE,JACKSON,WV,1537224.0,Cemetery,Chase Cemetery,Jackson,38.82065,-81.74674,182.0,1.0,38.82065,-81.74674,West Virginia,38.621691901095794,-80.8000481173913
COTTER,COTTER,WI,Lincoln,1903.0,1910.0,True,4.0,76249,True,7.0,True,COTTER,LINCOLN,WI,1964291.0,School,Cotter School (historical),Lincoln,45.28052,-89.66207,442.0,1.0,45.28052,-89.66207,Wisconsin,44.176831579177936,-89.75962788128719
COTTON VALLEY,COTTON VALLEY,MS,Calhoun,1871.0,1884.0,True,7.0,12887,True,13.0,True,COTTON VALLEY,CALHOUN,MS,683371.0,Locale,Cotton Valley (historical),Calhoun,33.9373353,-89.4417442,107.0,1.0,33.9373353,-89.4417442,Mississippi,32.904513690654625,-89.66801400419865
CLOVER,CLOVER,WI,Manitowoc,1897.0,1902.0,True,5.0,74969,True,5.0,True,CLOVER,MANITOWOC,WI,1563202.0,Populated Place,Clover,Manitowoc,44.03805,-87.70175,205.0,1.0,44.03805,-87.70175,Wisconsin,44.176831579177936,-89.75962788128719
SAULSTON,SAULSTON,NC,Wayne,1887.0,1937.0,True,2.0,112095,True,50.0,True,SAULSTON,WAYNE,NC,994369.0,Populated Place,Saulston,Wayne,35.44016,-77.89776,39.0,1.0,35.44016,-77.89776,North Carolina,35.65762478682171,-79.85172837217462
SILVER LAKE,SILVER LAKE,NE,Adams,1873.0,1887.0,True,7.0,158909,True,14.0,True,SILVER LAKE,ADAMS,NE,833449.0,Cemetery,Silver Lake Cemetery,Adams,40.45225,-98.54236,592.0,1.0,40.45225,-98.54236,Nebraska,41.26900677053825,-98.51318587346552
SCOTT,SCOTT,IA,Fayette,1895.0,1905.0,True,5.0,112342,True,10.0,True,SCOTT,FAYETTE,IA,1944978.0,Post Office,Scott Post Office (historical),Fayette,42.70137,-91.76405,352.0,1.0,42.70137,-91.76405,Iowa,41.92312560548421,-93.1251007552586
